<?xml version='1.0' ?>
<markers>
	<marker id="1" name="Alaska Courier Express" place_id="ChIJpXlYPsKXyFYRw0gYCRrd6qM" lat="61.187019" lng="-149.897003" city="Anchorage" state="AK" grade="3" usa="0" iac="0" hm="0" tsa="0" nfo="0" vehicles="n" phone="+19073333494" fax="" account="" email="alaskacourier@acsalaska.net" phone2="c: 907-242-2574" notes="" contact="Jen" />
	<marker id="2" name="Arctic Courier" place_id="ChIJ4WTeCaRbMlERLHtY00IyukE" lat="64.811646" lng="-147.888901" city="Fairbanks" state="AK" grade="3" usa="0" iac="0" hm="0" tsa="0" nfo="0" vehicles="n" phone="+19074573595" fax="19074573275" account="" email="" phone2="" notes="646 Rohloff St 99712" contact="Dan" /><marker id="3" name="Homer Expediters" place_id="ChIJT-xnPZMtwVYRazSDU3UnE-E" lat="59.637928" lng="-151.516144" city="Homer" state="AK" grade="3" usa="0" iac="0" hm="0" tsa="0" nfo="0" vehicles="n" phone="+19072355244" fax="" account="" email="" phone2="" notes="" contact="" />
	<marker id="4" name="Safe Response Education Llc" place_id="ChIJIe20Y68lDFQRSrbMsQhXTKg" lat="55.349697" lng="-131.668900" city="Ketchikan" state="AK" grade="3" usa="0" iac="0" hm="1" tsa="0" nfo="0" vehicles="n" phone="+19072255974" fax="19072479613" account="" email="itgooch@firehousezone.com" phone2="" notes="" contact="John" />
	<marker id="5" name="Errands 4 U" place_id="ChIJVVVVVRW0i4gR2jT1wXF94jU" lat="33.659824" lng="-85.831635" city="Anniston" state="AL" grade="3" usa="0" iac="0" hm="0" tsa="0" nfo="0" vehicles="n" phone="+12562386304" fax="12565918773" account="" email="" phone2="c: 256-591-8773" notes="" contact="Phyllis Garrett" />
	<marker id="6" name="Express Courier" place_id="ChIJOdQgYIsciYgRwZbmtIX1clM" lat="33.443165" lng="-86.846581" city="Birmingham" state="AL" grade="4" usa="0" iac="1" hm="0" tsa="0" nfo="0" vehicles="n" phone="+12052519518" fax="12052518962" account="#81050" email="birminghamemployees@expressdelivers.net" phone2="" notes="" contact="" /><marker id="7" name="National Courier" place_id="ChIJz58LFESBYogRpgW_Uhbja1k" lat="34.544449" lng="-86.968483" city="Birmingham" state="AL" grade="3" usa="0" iac="0" hm="0" tsa="0" nfo="0" vehicles="n" phone="+12563010502" fax="12563010504" account="" email="chuck@natlcourier.com" phone2="" notes="hotshotpickup.com" contact="" /><marker id="8" name="Hackbarth Delivery Service Inc" place_id="ChIJGZbOjeEeiYgRvavKKxb7h6g" lat="33.444946" lng="-86.846626" city="Birmingham" state="AL" grade="3" usa="0" iac="0" hm="0" tsa="0" nfo="0" vehicles="n" phone="+12059421401" fax="12059411472" account="" email="" phone2="" notes="" contact="Marc" /><marker id="9" name="Pace Runners Inc." place_id="ChIJK3x_YG3fiIgRQQ_RteCpwwE" lat="33.344002" lng="-86.921165" city="Birmingham" state="AL" grade="3" usa="0" iac="0" hm="0" tsa="0" nfo="0" vehicles="n" phone="+12056219013" fax="12056219015" account="" email="info@pacerunners.com" phone2="" notes="$$$ GET QUOTE" contact="Kurt" /><marker id="10" name="Lenny's Courier Service" place_id="ChIJxxynMXQYiogR9C1FIl9KfRw" lat="34.095333" lng="-86.118408" city="Boaz" state="AL" grade="3" usa="0" iac="0" hm="0" tsa="0" nfo="0" vehicles="n" phone="+12563938976" fax="" account="" email="" phone2="c: 256-393-4873" notes="" contact="" /><marker id="11" name="Seanet Couriers" place_id="ChIJdf5LHzR_hogR6czIUzU0VV4" lat="32.318230" lng="-86.902298" city="Dothan" state="AL" grade="3" usa="0" iac="0" hm="0" tsa="0" nfo="0" vehicles="n" phone="+13349842139" fax="" account="" email="seanetcouriers@gmail.com" phone2="Kay: 334-648-1096" notes="" contact="Aleigha" /><marker id="12" name="Just Task Me" place_id="ChIJI0NMm3Y2hogRGo47wP2LVuU" lat="33.684582" lng="-87.830055" city="Fayette" state="AL" grade="3" usa="0" iac="0" hm="0" tsa="0" nfo="0" vehicles="n" phone="+12059324227" fax="" account="" email="sporter0828@gmail.com" phone2="" notes="" contact="" /><marker id="13" name="Bernard Hohmann" place_id="" lat="0.000000" lng="0.000000" city="Headland" state="AL" grade="3" usa="0" iac="0" hm="0" tsa="0" nfo="0" vehicles="n" phone="+13346932388" fax="" account="" email="" phone2="" notes="" contact="Bernard" /><marker id="14" name="Conard Atchley" place_id="" lat="0.000000" lng="0.000000" city="Huntsville" state="AL" grade="3" usa="6270" iac="0" hm="0" tsa="0" nfo="0" vehicles="n" phone="+12564794012" fax="" account="" email="conardg@knology.net" phone2="" notes="air evac" contact="" /><marker id="15" name="Express Courier" place_id="ChIJx9O_8RNlYogRh4cOvZm7vgM" lat="34.671150" lng="-86.765915" city="Huntsville" state="AL" grade="4" usa="0" iac="1" hm="0" tsa="0" nfo="0" vehicles="n" phone="+12564610069" fax="12564610081" account="" email="" phone2="" notes="" contact="" /><marker id="17" name="Professional Carriers Of The South" place_id="ChIJfWLAMSVrYogRTVTY12Iq624" lat="34.760284" lng="-86.592255" city="Huntsville" state="AL" grade="4" usa="0" iac="0" hm="0" tsa="0" nfo="0" vehicles="n" phone="+12568517241" fax="12568517587" account="" email="" phone2="" notes="" contact="Dinae" /><marker id="18" name="Express Courier" place_id="ChIJlXcPHXBSmogR0etEpfW64wA" lat="30.709999" lng="-88.119255" city="Mobile" state="AL" grade="3" usa="0" iac="0" hm="0" tsa="0" nfo="0" vehicles="n" phone="+12514761770" fax="12514501606" account="" email="" phone2="" notes="" contact="" /><marker id="19" name="Gulf Coast Courier" place_id="ChIJNZIpMYVOmogR-pOI3KkaUJ4" lat="30.641041" lng="-88.081841" city="Mobile" state="AL" grade="3" usa="0" iac="0" hm="0" tsa="0" nfo="0" vehicles="n" phone="+12516534880" fax="" account="" email="" phone2="" notes="" contact="" /><marker id="20" name="Gulf States Delivery" place_id="ChIJc5XOYrtNmogRJNY_WImYM98" lat="30.669609" lng="-88.117584" city="Mobile" state="AL" grade="3" usa="0" iac="0" hm="0" tsa="0" nfo="0" vehicles="n" phone="+12514791200" fax="12514791204" account="" email="" phone2="" notes="" contact="Bill Marler" /><marker id="21" name="Idalisha Nicols" place_id="" lat="0.000000" lng="0.000000" city="Mobile" state="AL" grade="4" usa="0" iac="0" hm="0" tsa="0" nfo="0" vehicles="n" phone="+12516432333" fax="12514501481" account="" email="" phone2="" notes="" contact="" /><marker id="22" name="No Baycity-double Time-yellow Cab" place_id="" lat="0.000000" lng="0.000000" city="Mobile" state="AL" grade="1" usa="0" iac="0" hm="0" tsa="0" nfo="0" vehicles="n" phone="" fax="" account="" email="" phone2="" notes="" contact="" /><marker id="23" name="Quick Delivery Service" place_id="ChIJA988S3BSmogRoOr_eHiYLR4" lat="30.708147" lng="-88.116501" city="Mobile" state="AL" grade="2" usa="0" iac="0" hm="0" tsa="0" nfo="0" vehicles="n" phone="+12514715369" fax="12514799410" account="" email="" phone2="" notes="$$$$" contact="Jason" /><marker id="24" name="Roadrunner Express Delivery" place_id="ChIJpW2oJrMtjIgRKtXU_1R0PI0" lat="32.356857" lng="-86.133583" city="Mobile" state="AL" grade="3" usa="0" iac="0" hm="0" tsa="0" nfo="0" vehicles="n" phone="+13342399684" fax="13343569436" account="" email="" phone2="" notes="" contact="" /><marker id="25" name="Express Courier" place_id="ChIJu6qlPdQrjIgRCRePumAm9do" lat="32.385937" lng="-86.211563" city="Montgomery" state="AL" grade="3" usa="0" iac="0" hm="0" tsa="0" nfo="0" vehicles="n" phone="+13342606594" fax="13342444135" account="#82023" email="" phone2="" notes="" contact="" /><marker id="26" name="Rebecca Updegraff" place_id="" lat="0.000000" lng="0.000000" city="Montgomery" state="AL" grade="5" usa="6218" iac="0" hm="0" tsa="0" nfo="0" vehicles="n" phone="+17196856725" fax="" account="" email="" phone2="" notes="" contact="" /><marker id="27" name="Roadrunner Express Delivery" place_id="" lat="32.385365" lng="-86.161087" city="Montgomery" state="AL" grade="4" usa="0" iac="0" hm="0" tsa="0" nfo="0" vehicles="n" phone="+13344099203" fax="13343569436" account="" email="" phone2="" notes="" contact="" /><marker id="28" name="A&e" place_id="" lat="0.000000" lng="0.000000" city="Opelika" state="AL" grade="3" usa="0" iac="0" hm="0" tsa="0" nfo="0" vehicles="n" phone="+13347033520" fax="13347491936" account="" email="" phone2="334-742-9251" notes="fka Auburn Opelika" contact="" /><marker id="29" name="Shebella Consulting" place_id="" lat="0.000000" lng="0.000000" city="Ozark" state="AL" grade="3" usa="0" iac="0" hm="0" tsa="0" nfo="0" vehicles="n" phone="+13346932388" fax="13346930695" account="" email="hohmannbt@earthlink.net" phone2="c: 334-805-0848" notes="" contact="Bernhard" /><marker id="30" name="Port City Cab" place_id="" lat="0.000000" lng="0.000000" city="Pascagoula" state="AL" grade="3" usa="0" iac="0" hm="0" tsa="0" nfo="0" vehicles="n" phone="+12287122022" fax="" account="" email="" phone2="" notes="" contact="" /><marker id="31" name="Pace Runners" place_id="ChIJdf5LHzR_hogR6czIUzU0VV4" lat="0.000000" lng="0.000000" city="Pelham" state="AL" grade="3" usa="0" iac="0" hm="0" tsa="0" nfo="0" vehicles="n" phone="+8664107222" fax="" account="" email="" phone2="+12056219013" notes="" contact="" /><marker id="32" name="City Courier" place_id="" lat="0.000000" lng="0.000000" city="Phenix City" state="AL" grade="1" usa="0" iac="0" hm="0" tsa="0" nfo="0" vehicles="n" phone="+13344488660" fax="13344481654" account="" email="" phone2="" notes="" contact="Kathy" /><marker id="33" name="Lenny's Courier Service" place_id="" lat="0.000000" lng="0.000000" city="Rainbow City" state="AL" grade="3" usa="0" iac="0" hm="0" tsa="0" nfo="0" vehicles="n" phone="+12565387314" fax="" account="" email="" phone2="c: 256-393-4873" notes="" contact="" /><marker id="34" name="Hackbarth Delivery Service" place_id="ChIJ5fwKQfO3IIYRTOUfUNzyNLs" lat="0.000000" lng="0.000000" city="Tuscaloosa" state="AL" grade="3" usa="0" iac="0" hm="0" tsa="0" nfo="0" vehicles="n" phone="+18002773322" fax="" account="" email="" phone2="" notes="" contact="" /><marker id="35" name="Pak Mail" place_id="ChIJdcqR1KoChogRFemYy7W5a_w" lat="0.000000" lng="0.000000" city="Tuscaloosa" state="AL" grade="2" usa="0" iac="0" hm="0" tsa="0" nfo="0" vehicles="n" phone="+12053456245" fax="" account="" email="pakmail23@hotmail.com" phone2="" notes="$$$$$ min $100" contact="" /><marker id="36" name="Just Task Me" place_id="ChIJI0NMm3Y2hogRGo47wP2LVuU" lat="0.000000" lng="0.000000" city="Winfield" state="AL" grade="3" usa="0" iac="0" hm="0" tsa="0" nfo="0" vehicles="n" phone="+12059324227" fax="" account="" email="sporter0828@gmail.com" phone2="" notes="" contact="" /><marker id="37" name="NWA Courier" place_id="CHIJUVfoXQcQyYcR1E_ICDe0Dp4" lat="36.372852" lng="-94.208817" city="Bentonville" state="AR" grade="4" usa="0" iac="0" hm="0" tsa="0" nfo="0" vehicles="n" phone="+14792365578" fax="" account="" email="" phone2="" notes="XNA airport" contact="" /><marker id="38" name="Safe Route Car Services" place_id="" lat="36.081169" lng="-94.178970" city="Fayetteville" state="AR" grade="3" usa="0" iac="0" hm="0" tsa="0" nfo="0" vehicles="n" phone="+14792895151" fax="" account="" email="" phone2="" notes="" contact="Ary" /><marker id="39" name="Airport Delivery" place_id="" lat="0.000000" lng="0.000000" city="Fort Smith" state="AR" grade="3" usa="0" iac="0" hm="0" tsa="0" nfo="0" vehicles="n" phone="+14797820077" fax="" account="" email="" phone2="" notes="" contact="" /><marker id="40" name="Express Courier" place_id="ChIJ15HVUOxMyocRHCo-B8X7NiQ" lat="0.000000" lng="0.000000" city="Fort Smith" state="AR" grade="3" usa="0" iac="0" hm="0" tsa="0" nfo="0" vehicles="n" phone="+14792422161" fax="" account="" email="" phone2="" notes="" contact="" /><marker id="41" name="Razorback Cab" place_id="" lat="0.000000" lng="0.000000" city="Fort Smith" state="AR" grade="4" usa="0" iac="0" hm="0" tsa="0" nfo="0" vehicles="n" phone="+14797831118" fax="" account="" email="" phone2="" notes="" contact="" /><marker id="42" name="Zipp Delivery" place_id="" lat="0.000000" lng="0.000000" city="Fort Smith" state="AR" grade="3" usa="0" iac="0" hm="0" tsa="0" nfo="0" vehicles="n" phone="+14797514323" fax="14797503963" account="" email="" phone2="" notes="$$$" contact="Sonna" /><marker id="43" name="Paul Russell" place_id="" lat="0.000000" lng="0.000000" city="Gentry" state="AR" grade="3" usa="0" iac="0" hm="0" tsa="0" nfo="0" vehicles="v" phone="+19014904867" fax="" account="" email="" phone2="" notes="" contact="" /><marker id="44" name="Doug Willis" place_id="" lat="0.000000" lng="0.000000" city="Hot Springs" state="AR" grade="5" usa="6049" iac="0" hm="0" tsa="0" nfo="0" vehicles="n" phone="+15019843670" fax="" account="" email="" phone2="501-984-3670" notes="" contact="" /><marker id="45" name="Hot Springs Taxi" place_id="" lat="0.000000" lng="0.000000" city="Hot Springs" state="AR" grade="5" usa="0" iac="0" hm="0" tsa="0" nfo="0" vehicles="n" phone="+15016249494" fax="" account="" email="" phone2="" notes="" contact="" /><marker id="46" name="Ark Express Courier" place_id="" lat="0.000000" lng="0.000000" city="Jonesboro" state="AR" grade="4" usa="0" iac="0" hm="0" tsa="0" nfo="0" vehicles="n" phone="+18709195377" fax="" account="" email="jsharp288@gmail.com" phone2="" notes="" contact="Jason" /><marker id="47" name="Dukes Hot Shot Delivery" place_id="" lat="0.000000" lng="0.000000" city="Jonesboro" state="AR" grade="2" usa="0" iac="0" hm="0" tsa="0" nfo="0" vehicles="n" phone="+18702432015" fax="" account="" email="dukeshotshot@suddenlink.net" phone2="" notes="$$$" contact="" /><marker id="48" name="America's Best Courier" place_id="" lat="0.000000" lng="0.000000" city="Little Rock" state="AR" grade="4" usa="0" iac="0" hm="0" tsa="0" nfo="0" vehicles="n" phone="+15014147730" fax="15018473820" account="#USA9476" email="mark@arkansasbestcouriers.com" phone2="" notes="Airport+long" contact="" /><marker id="50" name="Corporate Courier" place_id="ChIJ_____2S70ocRauoPIGqVe1U" lat="0.000000" lng="0.000000" city="Little Rock" state="AR" grade="3" usa="0" iac="0" hm="0" tsa="0" nfo="0" vehicles="n" phone="+15013724817" fax="15013724961" account="" email="" phone2="" notes="Parrish Courier" contact="Lori-Robert" /><marker id="51" name="Parrish Delivery Services" place_id="" lat="0.000000" lng="0.000000" city="North Little Rock" state="AR" grade="5" usa="0" iac="0" hm="0" tsa="0" nfo="0" vehicles="n" phone="+15013724806" fax="15013724961" account="" email="" phone2="a: 501-373-7231" notes="" contact="Gary" /><marker id="52" name="Errands On Demand" place_id="" lat="0.000000" lng="0.000000" city="Springdale" state="AR" grade="3" usa="0" iac="0" hm="0" tsa="0" nfo="0" vehicles="n" phone="+14799570639" fax="" account="" email="leslieroberts9910@gmail.com" phone2="" notes="" contact="Ivy" /><marker id="53" name="Zipp Delivery" place_id="CHIJVXkM7L4UyYcRwbyAQizTILQ" lat="0.000000" lng="0.000000" city="Springdale" state="AR" grade="3" usa="0" iac="0" hm="0" tsa="0" nfo="0" vehicles="n" phone="+14797514323" fax="14797503963" account="" email="" phone2="" notes="Associated Global Systems $$$" contact="Sonna" /><marker id="54" name="A & T Delivery" place_id="ChIJ5azE0hY4NIYRHZu_h-Spjhg" lat="0.000000" lng="0.000000" city="Texarkana" state="AR" grade="3" usa="0" iac="0" hm="0" tsa="0" nfo="0" vehicles="n" phone="+18707742886" fax="" account="" email="" phone2="" notes="" contact="" /><marker id="55" name="Bulhead City Taxi" place_id="" lat="0.000000" lng="0.000000" city="Bullhead City" state="AZ" grade="3" usa="0" iac="0" hm="0" tsa="0" nfo="0" vehicles="n" phone="+19287548294" fax="" account="" email="" phone2="928-754-7433" notes="" contact="" /><marker id="56" name="Elite Delivery" place_id="" lat="0.000000" lng="0.000000" city="Bullhead City" state="AZ" grade="3" usa="0" iac="0" hm="0" tsa="0" nfo="0" vehicles="n" phone="+19287274961" fax="19286814962" account="" email="moms_express@hotmail.com" phone2="" notes="" contact="Jay Park" /><marker id="57" name="Road Runner" place_id="" lat="0.000000" lng="0.000000" city="Bullhead City" state="AZ" grade="2" usa="0" iac="0" hm="0" tsa="0" nfo="0" vehicles="n" phone="+19288549333" fax="" account="" email="" phone2="928-565-3331" notes="$$$$" contact="" /><marker id="58" name="Short Delivery" place_id="" lat="0.000000" lng="0.000000" city="Bullhead City" state="AZ" grade="3" usa="0" iac="0" hm="0" tsa="0" nfo="0" vehicles="n" phone="+17205410875" fax="" account="" email="" phone2="" notes="" contact="" /><marker id="59" name="Rapid Courier" place_id="" lat="0.000000" lng="0.000000" city="Casa Grande" state="AZ" grade="5" usa="0" iac="0" hm="0" tsa="0" nfo="0" vehicles="n" phone="+15202802150" fax="15204668128" account="" email="" phone2="c: 520-280-2150" notes="Arizona City" contact="Jerry" /><marker id="60" name="Service West" place_id="" lat="0.000000" lng="0.000000" city="Chandler" state="AZ" grade="3" usa="0" iac="0" hm="0" tsa="0" nfo="0" vehicles="n" phone="+14086686427" fax="14804645723" account="" email="" phone2="" notes="Flagstaff & Tucson daily" contact="Martin" /><marker id="61" name="Yarapai Courier" place_id="" lat="0.000000" lng="0.000000" city="Chino Valley" state="AZ" grade="3" usa="0" iac="0" hm="0" tsa="0" nfo="0" vehicles="n" phone="+19284436460" fax="" account="" email="" phone2="" notes="" contact="" /><marker id="63" name="Statewide Express" place_id="" lat="0.000000" lng="0.000000" city="Flagstaff" state="AZ" grade="3" usa="0" iac="0" hm="0" tsa="0" nfo="0" vehicles="n" phone="+19285226666" fax="19285226670" account="" email="" phone2="" notes="" contact="" /><marker id="64" name="Elite Delivery" place_id="" lat="0.000000" lng="0.000000" city="Kingman" state="AZ" grade="3" usa="0" iac="0" hm="0" tsa="0" nfo="0" vehicles="n" phone="+19287274961" fax="19286814962" account="" email="" phone2="" notes="" contact="Jay Park" /><marker id="65" name="Statewide Express" place_id="" lat="0.000000" lng="0.000000" city="Kingman" state="AZ" grade="3" usa="0" iac="0" hm="0" tsa="0" nfo="0" vehicles="n" phone="+19286921222" fax="19286921244" account="" email="" phone2="a: 928-444-6500" notes="" contact="" /><marker id="66" name="Accountable Courier" place_id="" lat="0.000000" lng="0.000000" city="Lake Havasu" state="AZ" grade="3" usa="0" iac="0" hm="0" tsa="0" nfo="0" vehicles="n" phone="+19282083727" fax="19284530817" account="" email="accountablecourier@yahoo.com" phone2="" notes="good rates" contact="Jason" /><marker id="67" name="Statewide Express" place_id="" lat="0.000000" lng="0.000000" city="Lake Havasu" state="AZ" grade="3" usa="0" iac="0" hm="0" tsa="0" nfo="0" vehicles="n" phone="+19286801222" fax="19286803680" account="" email="" phone2="a: 928-276-6236" notes="" contact="Robin" /><marker id="68" name="First Delivery Service Inc." place_id="" lat="0.000000" lng="0.000000" city="Mesa" state="AZ" grade="3" usa="0" iac="0" hm="0" tsa="0" nfo="0" vehicles="n" phone="+14803450028" fax="14808203372" account="" email="" phone2="" notes="" contact="David" /><marker id="69" name="Statewide Express" place_id="ChIJWZL9NCaPLYcRSt2O7pI7vIM" lat="0.000000" lng="0.000000" city="Navapache" state="AZ" grade="3" usa="0" iac="0" hm="0" tsa="0" nfo="0" vehicles="n" phone="+19285226666" fax="19285226670" account="" email="" phone2="" notes="" contact="" /><marker id="70" name="Care Free Courier" place_id="" lat="0.000000" lng="0.000000" city="Phoenix" state="AZ" grade="3" usa="0" iac="0" hm="1" tsa="0" nfo="0" vehicles="n" phone="+14806994983" fax="14806998328" account="" email="" phone2="" notes="" contact="Doug" /><marker id="71" name="Crossroad Couriers" place_id="" lat="0.000000" lng="0.000000" city="Phoenix" state="AZ" grade="3" usa="0" iac="0" hm="0" tsa="0" nfo="0" vehicles="n" phone="+1" fax="" account="#12842" email="phx@crossroadscourier.com" phone2="" notes="" contact="" /><marker id="72" name="Ej Trucking" place_id="" lat="0.000000" lng="0.000000" city="Phoenix" state="AZ" grade="3" usa="0" iac="0" hm="0" tsa="0" nfo="0" vehicles="t" phone="+14802882940" fax="14802884498" account="" email="" phone2="" notes="" contact="Em" /><marker id="73" name="Intelliquick Delivery" place_id="ChIJpRZ9HS0OK4cRb-OeDTGcL4w" lat="0.000000" lng="0.000000" city="Phoenix" state="AZ" grade="3" usa="0" iac="0" hm="0" tsa="0" nfo="0" vehicles="n" phone="+16022240033" fax="16023234097" account="" email="" phone2="" notes="" contact="Keith" /><marker id="74" name="Israel Ortiz" place_id="" lat="0.000000" lng="0.000000" city="Phoenix" state="AZ" grade="3" usa="6315" iac="0" hm="0" tsa="0" nfo="0" vehicles="n" phone="+14803873883" fax="" account="" email="" phone2="" notes="after 12pm" contact="" /><marker id="75" name="Quick Silver" place_id="" lat="0.000000" lng="0.000000" city="Phoenix" state="AZ" grade="5" usa="0" iac="0" hm="0" tsa="0" nfo="0" vehicles="n" phone="+16022727200" fax="16022727202" account="#US9999" email="" phone2="John (sales): 602-533-8812" notes="" contact="John" /><marker id="76" name="S&s" place_id="" lat="0.000000" lng="0.000000" city="Phoenix" state="AZ" grade="1" usa="0" iac="0" hm="0" tsa="0" nfo="0" vehicles="n" phone="+16028203022" fax="16233225195" account="" email="" phone2="" notes="" contact="" /><marker id="77" name="Yavapai Courier" place_id="ChIJVVVVVWUlLYcR3fIK_82-3vk" lat="0.000000" lng="0.000000" city="Prescott Valley" state="AZ" grade="3" usa="0" iac="0" hm="0" tsa="0" nfo="0" vehicles="n" phone="+19288488848" fax="" account="" email="" phone2="" notes="" contact="" /><marker id="78" name="Sprint Express" place_id="" lat="0.000000" lng="0.000000" city="Rimrock" state="AZ" grade="3" usa="0" iac="0" hm="0" tsa="0" nfo="0" vehicles="n" phone="+19286349314" fax="" account="" email="" phone2="" notes="" contact="Aaron" /><marker id="79" name="Gila Valley Taxi" place_id="" lat="0.000000" lng="0.000000" city="Safford" state="AZ" grade="3" usa="0" iac="0" hm="0" tsa="0" nfo="0" vehicles="n" phone="+19283223828" fax="" account="" email="bighomer@email.arizona.edu" phone2="" notes="175-genoptix" contact="Eric" /><marker id="80" name="Aloha Courier" place_id="" lat="0.000000" lng="0.000000" city="Scottsdale" state="AZ" grade="3" usa="0" iac="0" hm="0" tsa="0" nfo="0" vehicles="n" phone="+14802811521" fax="" account="" email="" phone2="" notes="" contact="" /><marker id="81" name="B2B Courier" place_id="ChIJNw80KPLq1oYRmTUM428G7Dg" lat="0.000000" lng="0.000000" city="Sierra Vista" state="AZ" grade="3" usa="0" iac="0" hm="0" tsa="0" nfo="0" vehicles="n" phone="+15204555977" fax="" account="" email="b2bcourier@aol.com" phone2="800-308-7771" notes="" contact="" /><marker id="82" name="Apex-arizona Parcel Express" place_id="" lat="0.000000" lng="0.000000" city="Tempe" state="AZ" grade="5" usa="0" iac="1" hm="0" tsa="0" nfo="0" vehicles="n" phone="+14809211717" fax="14809213434" account="" email="" phone2="c: 480-677-5035" notes="good for airport" contact="Tony" /><marker id="83" name="Calypso Couriers" place_id="" lat="0.000000" lng="0.000000" city="Tempe" state="AZ" grade="5" usa="0" iac="0" hm="0" tsa="0" nfo="0" vehicles="n" phone="+14803170800" fax="14804469874" account="" email="ed@calypsocouriers.com" phone2="" notes="1628 E SOUTHERN AVE #9-210 TEMPE AZ 85282" contact="Ed" /><marker id="84" name="Service West Delivery" place_id="" lat="0.000000" lng="0.000000" city="Tempe" state="AZ" grade="3" usa="0" iac="0" hm="0" tsa="0" nfo="0" vehicles="n" phone="+15013724820" fax="" account="" email="" phone2="" notes="" contact="Tom Hunt" /><marker id="85" name="Bradley Huff" place_id="" lat="0.000000" lng="0.000000" city="Tucson" state="AZ" grade="3" usa="0" iac="0" hm="0" tsa="0" nfo="0" vehicles="n" phone="+15202500328" fax="15208296862" account="" email="" phone2="" notes="" contact="Bradley" /><marker id="86" name="Corridor Courier" place_id="" lat="0.000000" lng="0.000000" city="Tucson" state="AZ" grade="5" usa="0" iac="0" hm="0" tsa="0" nfo="0" vehicles="n" phone="+15208899903" fax="15205739966" account="" email="" phone2="c: 520-861-2082" notes="" contact="Joe" /><marker id="87" name="Dlr Transportation" place_id="" lat="0.000000" lng="0.000000" city="Tucson" state="AZ" grade="3" usa="0" iac="0" hm="0" tsa="0" nfo="0" vehicles="n" phone="+15208612082" fax="15205739966" account="" email="joedelarosa54@aol.com" phone2="" notes="" contact="" /><marker id="88" name="Intelliquick Delivery" place_id="" lat="0.000000" lng="0.000000" city="Tucson" state="AZ" grade="3" usa="0" iac="0" hm="0" tsa="0" nfo="0" vehicles="n" phone="+15208840033" fax="15208844906" account="#73530" email="" phone2="" notes="" contact="Keith" /><marker id="89" name="Midco" place_id="" lat="0.000000" lng="0.000000" city="Yuma" state="AZ" grade="3" usa="0" iac="0" hm="0" tsa="0" nfo="0" vehicles="n" phone="+19287827817" fax="" account="" email="" phone2="" notes="" contact="" /><marker id="90" name="Statewide Express" place_id="" lat="0.000000" lng="0.000000" city="Yuma" state="AZ" grade="3" usa="0" iac="0" hm="0" tsa="0" nfo="0" vehicles="n" phone="+19287836236" fax="19287836293" account="" email="" phone2="a: 928-257-2602" notes="" contact="" /><marker id="91" name="Eddie Van Sloughton" place_id="" lat="0.000000" lng="0.000000" city="Apple Valley" state="CA" grade="3" usa="0" iac="0" hm="0" tsa="0" nfo="0" vehicles="n" phone="+17609463376" fax="" account="" email="" phone2="c: 760-684-7309" notes="(Barstow $100)" contact="Eddie" /><marker id="92" name="Arcata Mckinleyville Yellow Cab" place_id="" lat="0.000000" lng="0.000000" city="Arcata" state="CA" grade="3" usa="0" iac="0" hm="0" tsa="0" nfo="0" vehicles="n" phone="+17074454907" fax="17074425903" account="" email="" phone2="" notes="" contact="Tami" /><marker id="93" name="Perry's Parcel & Courier Service" place_id="" lat="0.000000" lng="0.000000" city="Atascadero" state="CA" grade="3" usa="0" iac="0" hm="0" tsa="0" nfo="0" vehicles="n" phone="+18054341027" fax="18054667719" account="" email="" phone2="" notes="" contact="" /><marker id="94" name="ABC Delivery" place_id="" lat="0.000000" lng="0.000000" city="Bakersfield" state="CA" grade="3" usa="0" iac="0" hm="0" tsa="0" nfo="0" vehicles="n" phone="+16618692223" fax="" account="" email="" phone2="" notes="" contact="" /><marker id="95" name="Asap Courier Services" place_id="CHIJwR-uTfJp6oAR8fNVk1wrXtk" lat="0.000000" lng="0.000000" city="Bakersfield" state="CA" grade="2" usa="0" iac="0" hm="0" tsa="0" nfo="0" vehicles="n" phone="+16616312727" fax="16616332727" account="" email="" phone2="" notes="$$$" contact="" /><marker id="96" name="Express Delivery" place_id="" lat="31.767530" lng="-106.421890" city="Bakersfield" state="CA" grade="3" usa="0" iac="0" hm="0" tsa="0" nfo="0" vehicles="n" phone="+16613918695" fax="16616791130" account="" email="" phone2="" notes="good for airport" contact="" /><marker id="97" name="Peninsula Courier" place_id="ChIJxRlUA-Np6oARuw5rasy6Dio" lat="0.000000" lng="0.000000" city="Bakersfield" state="CA" grade="5" usa="0" iac="0" hm="0" tsa="0" nfo="0" vehicles="n" phone="+16613250246" fax="16618611721" account="" email="" phone2="" notes="" contact="Tiffany" /><marker id="98" name="Urgent Express" place_id="" lat="0.000000" lng="0.000000" city="Bakersfield" state="CA" grade="3" usa="0" iac="0" hm="0" tsa="0" nfo="0" vehicles="n" phone="+16616349230" fax="" account="" email="" phone2="" notes="" contact="" /><marker id="99" name="On Trac" place_id="" lat="0.000000" lng="0.000000" city="Benicia" state="CA" grade="3" usa="0" iac="0" hm="0" tsa="0" nfo="0" vehicles="n" phone="+17077452466" fax="" account="" email="" phone2="Cindy: x6706" notes="" contact="" /><marker id="100" name="Express Connection" place_id="" lat="0.000000" lng="0.000000" city="Beverly Hills" state="CA" grade="3" usa="0" iac="0" hm="0" tsa="0" nfo="0" vehicles="n" phone="+18882637736" fax="" account="" email="" phone2="" notes="" contact="" /><marker id="101" name="Express Group" place_id="" lat="0.000000" lng="0.000000" city="Beverly Hills" state="CA" grade="5" usa="0" iac="0" hm="0" tsa="0" nfo="0" vehicles="n" phone="+13104788000" fax="13104704564" account="" email="" phone2="" notes="" contact="" /><marker id="102" name="Dynamics" place_id="" lat="0.000000" lng="0.000000" city="Burbank" state="CA" grade="4" usa="0" iac="0" hm="0" tsa="0" nfo="0" vehicles="n" phone="+18185988700" fax="" account="" email="" phone2="a: 818-266-2344" notes="" contact="Brian" /><marker id="103" name="Capo Courier" place_id="" lat="0.000000" lng="0.000000" city="Carlsbad" state="CA" grade="3" usa="0" iac="0" hm="0" tsa="0" nfo="0" vehicles="n" phone="+19493705024" fax="19496618125" account="" email="" phone2="" notes="" contact="Robert" /><marker id="104" name="Greenwalt Delivery Service" place_id="ChIJ5RrefxBy3IARZ5pDy6RPCz4" lat="0.000000" lng="0.000000" city="Carlsbad" state="CA" grade="5" usa="0" iac="1" hm="0" tsa="0" nfo="0" vehicles="n" phone="+17606966356" fax="17604960403" account="" email="sales@greenwaltdelivery.com" phone2="800-206-7450" notes="" contact="" /><marker id="105" name="Central Coast Cab" place_id="" lat="0.000000" lng="0.000000" city="Carmel" state="CA" grade="3" usa="0" iac="0" hm="0" tsa="0" nfo="0" vehicles="n" phone="+18316243885" fax="" account="" email="" phone2="" notes="" contact="" /><marker id="106" name="Extra Express" place_id="" lat="0.000000" lng="0.000000" city="Cerritos" state="CA" grade="3" usa="0" iac="0" hm="0" tsa="0" nfo="0" vehicles="n" phone="+18886402244" fax="15626331847" account="#83230" email="" phone2="" notes="Los Angeles" contact="Bill" /><marker id="107" name="Lightspeed-yellow Transport" place_id="" lat="0.000000" lng="0.000000" city="Chico" state="CA" grade="3" usa="0" iac="0" hm="0" tsa="0" nfo="0" vehicles="n" phone="+15306241776" fax="15303458029" account="" email="" phone2="" notes="" contact="Miks Isham" /><marker id="108" name="Dec Express" place_id="" lat="0.000000" lng="0.000000" city="Chula Vista" state="CA" grade="3" usa="0" iac="0" hm="0" tsa="0" nfo="0" vehicles="n" phone="+16195281553" fax="" account="" email="" phone2="" notes="" contact="" /><marker id="109" name="Contract Services" place_id="" lat="0.000000" lng="0.000000" city="Clovis" state="CA" grade="3" usa="0" iac="0" hm="0" tsa="0" nfo="0" vehicles="v" phone="+15592509210" fax="15592985789" account="" email="pwoods@ccast.com" phone2="" notes="$2-mi" contact="Pete Woods" /><marker id="111" name="Dillon's Courier" place_id="ChIJ23fsdidn14ARYn1zjoE9G88" lat="0.000000" lng="0.000000" city="El Centro" state="CA" grade="1" usa="0" iac="0" hm="0" tsa="0" nfo="0" vehicles="n" phone="+17603530881" fax="17603379111" account="" email="" phone2="" notes="$$$ crazy" contact="" /><marker id="112" name="New Vectors Aviation" place_id="" lat="0.000000" lng="0.000000" city="Escondido" state="CA" grade="3" usa="0" iac="0" hm="0" tsa="0" nfo="0" vehicles="a" phone="+18583350450" fax="17607373191" account="" email="" phone2="" notes="s calif charter" contact="" /><marker id="113" name="Arcata Mckinleyville Yellow Cab" place_id="" lat="0.000000" lng="0.000000" city="Eureka" state="CA" grade="3" usa="0" iac="0" hm="0" tsa="0" nfo="0" vehicles="n" phone="+17074454907" fax="17074425903" account="" email="" phone2="" notes="" contact="Tami" /><marker id="114" name="Big Foot Transportation" place_id="" lat="0.000000" lng="0.000000" city="Eureka" state="CA" grade="3" usa="0" iac="0" hm="0" tsa="0" nfo="0" vehicles="n" phone="+17078393932" fax="" account="" email="" phone2="" notes="" contact="" /><marker id="115" name="Overnight Carrier" place_id="" lat="0.000000" lng="0.000000" city="Fontana" state="CA" grade="3" usa="0" iac="0" hm="0" tsa="0" nfo="0" vehicles="t" phone="+19098222090" fax="19098222099" account="" email="" phone2="" notes="" contact="" /><marker id="116" name="We Will Deliver" place_id="" lat="0.000000" lng="0.000000" city="Fremont" state="CA" grade="3" usa="0" iac="0" hm="0" tsa="0" nfo="0" vehicles="n" phone="+15107137765" fax="" account="" email="" phone2="" notes="" contact="Heather" /><marker id="117" name="American Express Delivery" place_id="" lat="0.000000" lng="0.000000" city="Fresno" state="CA" grade="3" usa="0" iac="0" hm="0" tsa="0" nfo="0" vehicles="n" phone="+15592264000" fax="15592998240" account="" email="" phone2="" notes="$$$" contact="" /><marker id="118" name="Asap Executive Courier" place_id="" lat="0.000000" lng="0.000000" city="Fresno" state="CA" grade="5" usa="0" iac="0" hm="0" tsa="0" nfo="0" vehicles="n" phone="+15593461234" fax="15593460566" account="" email="david@asapcalifornia.com" phone2="" notes="" contact="Meeghan" /><marker id="119" name="Right Now Courier" place_id="" lat="0.000000" lng="0.000000" city="Fresno" state="CA" grade="3" usa="0" iac="0" hm="0" tsa="0" nfo="0" vehicles="n" phone="+15592227202" fax="15594488702" account="" email="barbara@thequickest.com" phone2="" notes="Not for Genoptics" contact="Barbara" /><marker id="120" name="San Jaquine Courier" place_id="" lat="0.000000" lng="0.000000" city="Fresno" state="CA" grade="3" usa="0" iac="0" hm="0" tsa="0" nfo="0" vehicles="n" phone="+18005156100" fax="" account="" email="" phone2="" notes="Not for Genoptics" contact="" /><marker id="121" name="24-7" place_id="ChIJ__9evByUwoARiBWPCsy8X-k" lat="0.000000" lng="0.000000" city="Glendale" state="CA" grade="3" usa="0" iac="0" hm="0" tsa="0" nfo="0" vehicles="n" phone="+18188431954" fax="18183927525" account="" email="" phone2="" notes="" contact="Richard" /><marker id="122" name="Priority Parcels Inc" place_id="ChIJPar1Oty1woARBxVq00rkhHU" lat="0.000000" lng="0.000000" city="Hawthorne" state="CA" grade="3" usa="0" iac="0" hm="0" tsa="0" nfo="0" vehicles="n" phone="+13109781507" fax="13109781555" account="" email="support@priorityparcels.com" phone2="" notes="$35 min-$2.50-mi" contact="Gus Stewart" /><marker id="123" name="Shotgun Delivery" place_id="ChIJOdQUj9foj4ARZATQJ1Pf2Eg" lat="0.000000" lng="0.000000" city="Hayward" state="CA" grade="5" usa="0" iac="0" hm="0" tsa="0" nfo="0" vehicles="n" phone="+18008335656" fax="18889599985" account="" email="greg@shotgun.com" phone2="" notes="" contact="" /><marker id="124" name="Sunny Express" place_id="CHIJu2HLzNWWj4ARjBFI-3TCaFI" lat="0.000000" lng="0.000000" city="Hayward" state="CA" grade="3" usa="0" iac="0" hm="0" tsa="0" nfo="0" vehicles="n" phone="+15105762000" fax="15102643989" account="#76961" email="" phone2="" notes="Rush 1.75-mi" contact="Matt" /><marker id="125" name="24-7" place_id="" lat="0.000000" lng="0.000000" city="Hollywood" state="CA" grade="3" usa="0" iac="0" hm="0" tsa="0" nfo="0" vehicles="n" phone="+18188431954" fax="" account="#2008" email="" phone2="" notes="" contact="" /><marker id="126" name="Mercury Courier-ranger Messenger" place_id="" lat="0.000000" lng="0.000000" city="Indio" state="CA" grade="3" usa="0" iac="0" hm="0" tsa="0" nfo="0" vehicles="n" phone="+18776206277" fax="18776206277" account="" email="" phone2="" notes="" contact="Simone" /><marker id="127" name="Gc Transport" place_id="" lat="0.000000" lng="0.000000" city="Ione" state="CA" grade="3" usa="0" iac="0" hm="0" tsa="0" nfo="0" vehicles="n" phone="+19165086832" fax="12092744505" account="" email="" phone2="" notes="" contact="Gary Carlson" /><marker id="128" name="Capo Courier" place_id="ChIJqUg7ivbx3IARbfbYcF8JUbw" lat="0.000000" lng="0.000000" city="Irvine" state="CA" grade="3" usa="0" iac="0" hm="0" tsa="0" nfo="0" vehicles="n" phone="+19493705024" fax="19496618124" account="" email="" phone2="" notes="" contact="Robert" /><marker id="129" name="Cooper Delivery Service" place_id="" lat="0.000000" lng="0.000000" city="Irwindale" state="CA" grade="3" usa="0" iac="0" hm="0" tsa="0" nfo="0" vehicles="n" phone="+18003358308" fax="16268137764" account="" email="" phone2="" notes="" contact="Anastasia" /><marker id="130" name="Lashon Curry" place_id="" lat="0.000000" lng="0.000000" city="La" state="CA" grade="4" usa="6245" iac="0" hm="0" tsa="0" nfo="0" vehicles="n" phone="+13239441177" fax="" account="" email="" phone2="" notes="after 11 am" contact="" /><marker id="131" name="West Coast Courier" place_id="" lat="0.000000" lng="0.000000" city="Laguna Beach" state="CA" grade="3" usa="0" iac="0" hm="0" tsa="0" nfo="0" vehicles="n" phone="+19493678050" fax="" account="" email="" phone2="" notes="" contact="" /><marker id="132" name="Liberty Express" place_id="" lat="0.000000" lng="0.000000" city="Lancaster" state="CA" grade="3" usa="0" iac="0" hm="0" tsa="0" nfo="0" vehicles="n" phone="+16618161449" fax="16617292618" account="" email="" phone2="661-250-0057" notes="" contact="" /><marker id="133" name="Hamel Express Delivery" place_id="" lat="0.000000" lng="0.000000" city="Lodi" state="CA" grade="3" usa="0" iac="0" hm="0" tsa="0" nfo="0" vehicles="n" phone="+12092983799" fax="" account="" email="" phone2="" notes="" contact="Richard" /><marker id="134" name="Michael Hagen" place_id="" lat="0.000000" lng="0.000000" city="Lodi" state="CA" grade="3" usa="0" iac="0" hm="0" tsa="0" nfo="0" vehicles="n" phone="+12093294219" fax="" account="" email="" phone2="209-333-8034" notes="" contact="" /><marker id="135" name="Action Messenger Service" place_id="" lat="0.000000" lng="0.000000" city="Los Angeles" state="CA" grade="3" usa="0" iac="0" hm="0" tsa="0" nfo="0" vehicles="n" phone="+18004742587" fax="13236548889" account="" email="" phone2="" notes="DBA Peach Inc actionmessenger.com" contact="" /><marker id="136" name="American Expediting" place_id="" lat="0.000000" lng="0.000000" city="Los Angeles" state="CA" grade="3" usa="0" iac="1" hm="0" tsa="0" nfo="0" vehicles="n" phone="+13237772467" fax="18187365892" account="" email="" phone2="" notes="" contact="" /><marker id="138" name="Extra Express" place_id="" lat="0.000000" lng="0.000000" city="Los Angeles" state="CA" grade="3" usa="0" iac="0" hm="0" tsa="0" nfo="0" vehicles="n" phone="+18886402244" fax="15626331847" account="#83230" email="dcupp@extraexpress.com" phone2="" notes="see ffo list" contact="" /><marker id="139" name="Gandarilla Trucking" place_id="" lat="0.000000" lng="0.000000" city="Los Angeles" state="CA" grade="3" usa="0" iac="0" hm="0" tsa="0" nfo="0" vehicles="t" phone="+12133052505" fax="12137488678" account="" email="" phone2="" notes="" contact="" /><marker id="140" name="Glovalink" place_id="" lat="0.000000" lng="0.000000" city="Los Angeles" state="CA" grade="3" usa="0" iac="0" hm="0" tsa="0" nfo="0" vehicles="t" phone="+15628027101" fax="" account="" email="" phone2="" notes="" contact="" /><marker id="141" name="Jet Delivery Inc." place_id="" lat="0.000000" lng="0.000000" city="Los Angeles" state="CA" grade="3" usa="0" iac="0" hm="0" tsa="0" nfo="0" vehicles="n" phone="+12137477477" fax="12137477001" account="#SPEPA" email="" phone2="" notes="" contact="Larry" /><marker id="143" name="Shotgun Delivery" place_id="" lat="0.000000" lng="0.000000" city="Los Angeles" state="CA" grade="3" usa="0" iac="0" hm="0" tsa="0" nfo="0" vehicles="n" phone="+18008335656" fax="" account="" email="" phone2="" notes="" contact="" /><marker id="144" name="Smart Flyer" place_id="" lat="0.000000" lng="0.000000" city="Los Angeles" state="CA" grade="4" usa="0" iac="0" hm="0" tsa="0" nfo="0" vehicles="n" phone="+17146506962" fax="" account="" email="" phone2="" notes="good for deals" contact="KENNY" /><marker id="145" name="Southwest Express" place_id="" lat="0.000000" lng="0.000000" city="Los Angeles" state="CA" grade="5" usa="0" iac="1" hm="0" tsa="0" nfo="0" vehicles="n" phone="+19494745038" fax="19494745080" account="" email="" phone2="" notes="not weekend or after4 pm" contact="" /><marker id="146" name="Tigran Martirosyan" place_id="" lat="0.000000" lng="0.000000" city="Los Angeles" state="CA" grade="3" usa="0" iac="0" hm="0" tsa="0" nfo="0" vehicles="n" phone="+18189397319" fax="18182878870" account="" email="tmartirosyan7012@gmail.com" phone2="" notes="" contact="" /><marker id="147" name="First Delivery Service Inc." place_id="" lat="0.000000" lng="0.000000" city="Manhattan" state="CA" grade="3" usa="0" iac="0" hm="0" tsa="0" nfo="0" vehicles="n" phone="+18882357555" fax="13105464865" account="" email="" phone2="" notes="" contact="Robert" /><marker id="148" name="Mendocino Limousine" place_id="" lat="0.000000" lng="0.000000" city="Mendocino" state="CA" grade="3" usa="0" iac="0" hm="0" tsa="0" nfo="0" vehicles="n" phone="+17079648294" fax="" account="" email="" phone2="" notes="" contact="Steven" /><marker id="149" name="Red Line Courier" place_id="ChIJichYM2GQwoAR7sj-81Ebo8k" lat="0.000000" lng="0.000000" city="Mission Hills" state="CA" grade="3" usa="0" iac="0" hm="0" tsa="0" nfo="0" vehicles="n" phone="+18188981164" fax="" account="" email="" phone2="" notes="LA" contact="" /><marker id="150" name="Acme Courier Service" place_id="" lat="0.000000" lng="0.000000" city="Mission Viejo" state="CA" grade="3" usa="0" iac="0" hm="0" tsa="0" nfo="0" vehicles="n" phone="+19497705429" fax="19497700952" account="" email="" phone2="" notes="" contact="Richard" /><marker id="151" name="Northcoast Couriers" place_id="" lat="0.000000" lng="0.000000" city="Modesto" state="CA" grade="3" usa="0" iac="0" hm="0" tsa="0" nfo="0" vehicles="n" phone="+12098581271" fax="12098581145" account="" email="" phone2="" notes="" contact="" /><marker id="152" name="Same Day Express" place_id="" lat="0.000000" lng="0.000000" city="Modesto" state="CA" grade="3" usa="0" iac="0" hm="0" tsa="0" nfo="0" vehicles="n" phone="+12095225448" fax="" account="" email="lwilkinson@samedayexpressinc.com" phone2="" notes="" contact="" /><marker id="153" name="Valley Courier Systems" place_id="ChIJK0W3txtQkIARUwP4JtZ0YbQ" lat="0.000000" lng="0.000000" city="Modesto" state="CA" grade="3" usa="0" iac="0" hm="0" tsa="0" nfo="0" vehicles="n" phone="+12094416877" fax="12098691368" account="" email="valleycourier@sbcglobal.net" phone2="c: 209-996-4141" notes="$$$" contact="Robert" /><marker id="154" name="Xpress Delivery Service" place_id="ChIJuaatebpWkIARmi9EMkoxA_A" lat="0.000000" lng="0.000000" city="Modesto" state="CA" grade="5" usa="0" iac="0" hm="0" tsa="0" nfo="0" vehicles="c" phone="+12095297737" fax="" account="" email="" phone2="" notes="" contact="" /><marker id="155" name="Central Coast Cab" place_id="" lat="0.000000" lng="0.000000" city="Monterey" state="CA" grade="3" usa="0" iac="0" hm="0" tsa="0" nfo="0" vehicles="n" phone="+18316243885" fax="18316468222" account="" email="" phone2="Michael: 831-915-0066" notes="" contact="" /><marker id="156" name="Kal West Courier" place_id="" lat="0.000000" lng="0.000000" city="Monterey" state="CA" grade="3" usa="0" iac="0" hm="0" tsa="0" nfo="0" vehicles="n" phone="+18315956463" fax="18313846840" account="" email="" phone2="831-384-7400" notes="" contact="" /><marker id="157" name="New Era Couriers" place_id="" lat="0.000000" lng="0.000000" city="Newport Beach" state="CA" grade="3" usa="0" iac="0" hm="0" tsa="0" nfo="0" vehicles="n" phone="+19497211298" fax="19497215847" account="" email="hubingers@sbcglobal.net" phone2="" notes="Good rates" contact="Peter" /><marker id="158" name="Quintero Trucking Corp" place_id="" lat="0.000000" lng="0.000000" city="Oakland" state="CA" grade="3" usa="0" iac="0" hm="0" tsa="0" nfo="0" vehicles="t" phone="+18007742770" fax="15108392229" account="" email="" phone2="" notes="" contact="Quintero" /><marker id="159" name="R&A Trucking" place_id="ChIJfQ_JOemFj4ARxwj1Y6CKUhw" lat="0.000000" lng="0.000000" city="Oakland" state="CA" grade="3" usa="0" iac="0" hm="0" tsa="0" nfo="0" vehicles="t" phone="+15106327112" fax="" account="" email="" phone2="" notes="Flatbeds" contact="Ben-Frank" /><marker id="160" name="Rapid Express" place_id="" lat="0.000000" lng="0.000000" city="Ontario" state="CA" grade="3" usa="0" iac="0" hm="0" tsa="0" nfo="0" vehicles="n" phone="+19099231000" fax="19099302628" account="" email="" phone2="" notes="" contact="" /><marker id="161" name="Condor Messenger" place_id="" lat="0.000000" lng="0.000000" city="Orange" state="CA" grade="3" usa="0" iac="0" hm="0" tsa="0" nfo="0" vehicles="n" phone="+17142024777" fax="" account="" email="" phone2="" notes="Good rates" contact="Ron" /><marker id="162" name="Associated Courier" place_id="" lat="0.000000" lng="0.000000" city="Oxnard" state="CA" grade="4" usa="0" iac="0" hm="0" tsa="0" nfo="0" vehicles="n" phone="+18056390710" fax="18056390778" account="" email="" phone2="" notes="" contact="" /><marker id="163" name="Central Courier" place_id="CHIJny8ViD9N6IARd00bjni05KA" lat="0.000000" lng="0.000000" city="Oxnard" state="CA" grade="2" usa="0" iac="0" hm="0" tsa="0" nfo="0" vehicles="n" phone="+18056541145" fax="18056541274" account="" email="" phone2="" notes="$$$$" contact="Rick" /><marker id="164" name="Dynamic Delivery" place_id="" lat="0.000000" lng="0.000000" city="Oxnard" state="CA" grade="3" usa="0" iac="0" hm="0" tsa="0" nfo="0" vehicles="n" phone="+18185988700" fax="18182300405" account="" email="" phone2="" notes="" contact="" /><marker id="165" name="Mercury Courier-ranger Messenger" place_id="" lat="0.000000" lng="0.000000" city="Palm Desert" state="CA" grade="3" usa="0" iac="0" hm="0" tsa="0" nfo="0" vehicles="n" phone="+18776206277" fax="" account="" email="" phone2="" notes="" contact="Simone" /><marker id="166" name="Aaa Courier" place_id="" lat="0.000000" lng="0.000000" city="Palm Spring" state="CA" grade="1" usa="0" iac="0" hm="0" tsa="0" nfo="0" vehicles="n" phone="+17608648518" fax="" account="" email="" phone2="Bill: 530-401-3566 760-797-1282" notes="" contact="" /><marker id="167" name="Coachella Valley Couriers" place_id="ChIJs8MhHb342oARFkhZPIcGiCo" lat="0.000000" lng="0.000000" city="Palm Spring" state="CA" grade="4" usa="0" iac="0" hm="0" tsa="0" nfo="0" vehicles="n" phone="+17602854900" fax="17605647906" account="" email="" phone2="" notes="" contact="" /><marker id="168" name="Petaluma Taxi" place_id="" lat="0.000000" lng="0.000000" city="Petaluma" state="CA" grade="3" usa="0" iac="0" hm="0" tsa="0" nfo="0" vehicles="n" phone="+17077764888" fax="" account="" email="" phone2="" notes="" contact="" /><marker id="169" name="Timex Express" place_id="" lat="0.000000" lng="0.000000" city="Petaluma" state="CA" grade="3" usa="0" iac="0" hm="0" tsa="0" nfo="0" vehicles="t" phone="+14158508981" fax="" account="" email="" phone2="" notes="" contact="" /><marker id="170" name="Best Delivery" place_id="" lat="0.000000" lng="0.000000" city="Rancho Cucamonga" state="CA" grade="3" usa="0" iac="0" hm="0" tsa="0" nfo="0" vehicles="n" phone="+18889814000" fax="" account="" email="" phone2="" notes="" contact="" /><marker id="171" name="Cooper Courier" place_id="" lat="0.000000" lng="0.000000" city="Redding" state="CA" grade="3" usa="0" iac="0" hm="0" tsa="0" nfo="0" vehicles="n" phone="+15302221124" fax="15302558104" account="" email="" phone2="530-255-8103" notes="" contact="" /><marker id="172" name="Yellow Cab" place_id="" lat="0.000000" lng="0.000000" city="Redding" state="CA" grade="3" usa="0" iac="0" hm="0" tsa="0" nfo="0" vehicles="n" phone="+15305221234" fax="" account="" email="" phone2="Greg: 410-5788" notes="" contact="" /><marker id="173" name="B&l Delivery" place_id="" lat="0.000000" lng="0.000000" city="Ridgecrest" state="CA" grade="3" usa="0" iac="0" hm="0" tsa="0" nfo="0" vehicles="n" phone="+17606083278" fax="" account="" email="" phone2="" notes="" contact="" /><marker id="174" name="Tiney Town" place_id="" lat="0.000000" lng="0.000000" city="Ridgecrest" state="CA" grade="3" usa="0" iac="0" hm="0" tsa="0" nfo="0" vehicles="n" phone="+17607936654" fax="" account="" email="" phone2="" notes="" contact="" /><marker id="175" name="Micahel Dubey" place_id="" lat="0.000000" lng="0.000000" city="Rio Linda" state="CA" grade="4" usa="6301" iac="0" hm="1" tsa="0" nfo="0" vehicles="n" phone="+19167150233" fax="" account="" email="" phone2="" notes="" contact="" /><marker id="176" name="Ed Ex Delivery" place_id="" lat="0.000000" lng="0.000000" city="Rohnert Park" state="CA" grade="3" usa="0" iac="0" hm="0" tsa="0" nfo="0" vehicles="n" phone="+14158791051" fax="" account="" email="edwardugarte@msn.com" phone2="" notes="" contact="Edward" /><marker id="177" name="At Your Service Courier" place_id="" lat="0.000000" lng="0.000000" city="Sacramento" state="CA" grade="4" usa="0" iac="0" hm="0" tsa="0" nfo="0" vehicles="n" phone="+19163590526" fax="" account="" email="ayscouriers.jim@gmail.com" phone2="" notes="" contact="Jerry" /><marker id="178" name="Gerald Chambers" place_id="" lat="0.000000" lng="0.000000" city="Sacramento" state="CA" grade="5" usa="6210" iac="0" hm="0" tsa="0" nfo="0" vehicles="n" phone="+19168350066" fax="" account="" email="" phone2="h: 916-585-9452" notes="" contact="" /><marker id="179" name="Go Getters Delivery" place_id="ChIJi3U21hXUmoARapUgETA2j-U" lat="0.000000" lng="0.000000" city="Sacramento" state="CA" grade="3" usa="0" iac="0" hm="0" tsa="0" nfo="0" vehicles="n" phone="+19163724646" fax="" account="" email="donna@go-getters-delivery.com" phone2="" notes="" contact="Donna" /><marker id="180" name="Hortton Express" place_id="" lat="0.000000" lng="0.000000" city="Sacramento" state="CA" grade="4" usa="0" iac="0" hm="1" tsa="0" nfo="0" vehicles="n" phone="+19165833041" fax="" account="" email="" phone2="" notes="" contact="" /><marker id="181" name="Hovhan Express" place_id="" lat="0.000000" lng="0.000000" city="Sacramento" state="CA" grade="3" usa="0" iac="0" hm="0" tsa="0" nfo="0" vehicles="n" phone="+19165833042" fax="" account="" email="johnshiboyan1@gmail.com" phone2="" notes="$$$$" contact="" /><marker id="183" name="Shotgun Delivery" place_id="" lat="0.000000" lng="0.000000" city="Sacramento" state="CA" grade="3" usa="0" iac="0" hm="0" tsa="0" nfo="0" vehicles="n" phone="+18008335656" fax="" account="" email="" phone2="" notes="" contact="" /><marker id="184" name="Sunny Express" place_id="CHIJu2HLzNWWj4ARjBFI-3TCaFI" lat="0.000000" lng="0.000000" city="Sacramento" state="CA" grade="3" usa="0" iac="0" hm="0" tsa="0" nfo="0" vehicles="n" phone="+15105762000" fax="" account="#76961" email="" phone2="" notes="" contact="" /><marker id="185" name="World Courier Ground" place_id="" lat="0.000000" lng="0.000000" city="Sacramento" state="CA" grade="3" usa="0" iac="0" hm="0" tsa="0" nfo="1" vehicles="n" phone="+19164228000" fax="19164228310" account="" email="" phone2="" notes="nfo" contact="" /><marker id="186" name="Carlton Delivery" place_id="" lat="0.000000" lng="0.000000" city="Salinas" state="CA" grade="3" usa="0" iac="0" hm="0" tsa="0" nfo="0" vehicles="n" phone="+18312141296" fax="18316636613" account="" email="" phone2="" notes="" contact="" /><marker id="187" name="Sunrise Express" place_id="ChIJMT6F6B_5jYARHzi9iCAiHB4" lat="0.000000" lng="0.000000" city="Salinas" state="CA" grade="3" usa="0" iac="0" hm="0" tsa="0" nfo="0" vehicles="n" phone="+18317583630" fax="18314175164" account="" email="dispatch@sunexco.com" phone2="" notes="" contact="Kyle" /><marker id="188" name="Yisel's Courier" place_id="" lat="0.000000" lng="0.000000" city="Salinas" state="CA" grade="3" usa="0" iac="0" hm="0" tsa="0" nfo="0" vehicles="n" phone="+16617171787" fax="" account="" email="" phone2="" notes="" contact="" /><marker id="189" name="Go Green Transportation" place_id="" lat="0.000000" lng="0.000000" city="San Bernardino" state="CA" grade="5" usa="0" iac="0" hm="0" tsa="0" nfo="0" vehicles="n" phone="+19092229436" fax="19093638460" account="" email="nate@ggtcourier.com" phone2="" notes="(DL cou)" contact="" /><marker id="190" name="Capo Courier" place_id="" lat="0.000000" lng="0.000000" city="San Clemente" state="CA" grade="3" usa="0" iac="0" hm="0" tsa="0" nfo="0" vehicles="n" phone="+19493705026" fax="19496618126" account="" email="" phone2="" notes="18" contact="Robert" /><marker id="191" name="American Expediting" place_id="" lat="0.000000" lng="0.000000" city="San Diego" state="CA" grade="3" usa="0" iac="0" hm="0" tsa="0" nfo="0" vehicles="n" phone="+18585648047" fax="" account="" email="" phone2="" notes="" contact="" /><marker id="192" name="Northstar Courier" place_id="" lat="0.000000" lng="0.000000" city="San Diego" state="CA" grade="5" usa="0" iac="1" hm="0" tsa="0" nfo="0" vehicles="n" phone="+18582688300" fax="18582796656" account="" email="contactus@northstarcourier.net" phone2="c: 619-906-6003 619-906-6002" notes="fka Bullet" contact="Jeff" /><marker id="193" name="Rnc Transport Express" place_id="" lat="0.000000" lng="0.000000" city="San Diego" state="CA" grade="3" usa="0" iac="0" hm="0" tsa="0" nfo="0" vehicles="t" phone="+16192536476" fax="16196517365" account="" email="rcrump02@cox.net" phone2="" notes="phone is for 24 7 computer solutions?? straight" contact="Robert" /><marker id="195" name="Caliexpress" place_id="" lat="0.000000" lng="0.000000" city="San Francisco" state="CA" grade="3" usa="0" iac="0" hm="0" tsa="0" nfo="0" vehicles="n" phone="+15108872950" fax="15108872980" account="" email="" phone2="" notes="" contact="Jaun" /><marker id="198" name="Go Courier" place_id="" lat="0.000000" lng="0.000000" city="San Francisco" state="CA" grade="3" usa="0" iac="0" hm="0" tsa="0" nfo="0" vehicles="n" phone="+1" fax="" account="" email="" phone2="" notes="" contact="" /><marker id="200" name="Jet Delivery Inc." place_id="" lat="0.000000" lng="0.000000" city="San Francisco" state="CA" grade="4" usa="0" iac="0" hm="0" tsa="0" nfo="0" vehicles="n" phone="+18007167177" fax="" account="#SPEPA" email="" phone2="" notes="" contact="" /><marker id="202" name="One Hour Courier" place_id="" lat="0.000000" lng="0.000000" city="San Francisco" state="CA" grade="3" usa="0" iac="0" hm="0" tsa="0" nfo="0" vehicles="n" phone="+19259471100" fax="" account="" email="" phone2="" notes="" contact="Jerry" /><marker id="203" name="PC Express Delivery Inc." place_id="CHIJI6QKoymUj4ARl4ni7iQeuwU" lat="0.000000" lng="0.000000" city="San Francisco" state="CA" grade="3" usa="0" iac="0" hm="0" tsa="0" nfo="0" vehicles="t" phone="+15108878777" fax="15108878776" account="#5103" email="" phone2="" notes="" contact="" /><marker id="205" name="Shotgun Delivery" place_id="ChIJOdQUj9foj4ARZATQJ1Pf2E" lat="0.000000" lng="0.000000" city="San Francisco" state="CA" grade="3" usa="0" iac="0" hm="0" tsa="0" nfo="0" vehicles="n" phone="+18008335656" fax="18889599985" account="" email="greg@shotgun.com" phone2="" notes="not good for late" contact="Greg" /><marker id="206" name="Streamline Express" place_id="" lat="0.000000" lng="0.000000" city="San Francisco" state="CA" grade="2" usa="0" iac="1" hm="0" tsa="0" nfo="0" vehicles="n" phone="+14152858088" fax="16505898830" account="" email="operations@streamline-express.com" phone2="c: 415-424-0776" notes="$$$" contact="Terrance" /><marker id="207" name="World Courier Ground" place_id="" lat="0.000000" lng="0.000000" city="San Francisco" state="CA" grade="3" usa="0" iac="0" hm="0" tsa="0" nfo="1" vehicles="n" phone="+16507779910" fax="16507779928" account="#23293" email="" phone2="Rob (sales): 510-385-4635" notes="" contact="Rob Guiraldi" /><marker id="208" name="Am Tran" place_id="" lat="0.000000" lng="0.000000" city="San Jose" state="CA" grade="4" usa="0" iac="0" hm="0" tsa="0" nfo="0" vehicles="n" phone="+1877.243.8733" fax="" account="#1033" email="" phone2="" notes="" contact="" /><marker id="209" name="Green Eagle Transportation" place_id="" lat="0.000000" lng="0.000000" city="San Jose" state="CA" grade="3" usa="0" iac="0" hm="0" tsa="0" nfo="0" vehicles="n" phone="+14089105557" fax="" account="" email="m_onye@yahoo.com" phone2="" notes="" contact="Michael" /><marker id="210" name="Streamline Express" place_id="CHIJg7zIjrnMj4ARYGatGhBGf8w" lat="0.000000" lng="0.000000" city="San Jose" state="CA" grade="3" usa="0" iac="0" hm="0" tsa="0" nfo="0" vehicles="n" phone="+14152858088" fax="" account="" email="" phone2="" notes="" contact="" /><marker id="211" name="Capo Courier" place_id="ChIJqUg7ivbx3IARbfbYcF8JUbw" lat="0.000000" lng="0.000000" city="San Juan Capistrano" state="CA" grade="3" usa="0" iac="0" hm="0" tsa="0" nfo="0" vehicles="n" phone="+19493705024" fax="19496618124" account="" email="" phone2="" notes="Phone is for R G Hooper Insurance Services" contact="Robert" /><marker id="212" name="North Coast Courier" place_id="" lat="0.000000" lng="0.000000" city="San Leandro" state="CA" grade="3" usa="0" iac="0" hm="0" tsa="0" nfo="0" vehicles="n" phone="+15103513717" fax="15103515704" account="#3832" email="" phone2="" notes="" contact="" /><marker id="213" name="Perry's Parcel & Courier" place_id="" lat="0.000000" lng="0.000000" city="San Luis Obispo" state="CA" grade="4" usa="0" iac="0" hm="0" tsa="0" nfo="0" vehicles="n" phone="+18054341027" fax="18884157929" account="" email="dispatch1027@gmail.com" phone2="" notes="" contact="" /><marker id="214" name="Sherri Saurets Errand Service" place_id="" lat="0.000000" lng="0.000000" city="San Luis Obispo" state="CA" grade="2" usa="0" iac="0" hm="0" tsa="0" nfo="0" vehicles="n" phone="+18056107071" fax="" account="" email="" phone2="" notes="$$$" contact="" /><marker id="215" name="Budget Courier" place_id="CHIJ0V4QAl113IARhXhpvrRLpcU" lat="0.000000" lng="0.000000" city="San Marcos" state="CA" grade="3" usa="0" iac="0" hm="0" tsa="0" nfo="0" vehicles="n" phone="+17605919902" fax="17605919569" account="" email="" phone2="" notes="" contact="Rebecca" /><marker id="217" name="Pioneer Express" place_id="" lat="0.000000" lng="0.000000" city="San Ramon" state="CA" grade="3" usa="0" iac="0" hm="0" tsa="0" nfo="0" vehicles="n" phone="+18882638846" fax="16509521145" account="" email="" phone2="" notes="" contact="Jose" /><marker id="218" name="Advanced Courier Concepts" place_id="CHIJhYqA3LLZ3IARDszit0aMf6M" lat="0.000000" lng="0.000000" city="Santa Ana" state="CA" grade="3" usa="0" iac="0" hm="0" tsa="0" nfo="0" vehicles="n" phone="+18008889147" fax="" account="" email="" phone2="" notes="won't invoice" contact="" /><marker id="219" name="Dedicated Xpress" place_id="ChIJvbTLniPW3IARFWBtkGSWGVY" lat="0.000000" lng="0.000000" city="Santa Ana" state="CA" grade="3" usa="0" iac="0" hm="0" tsa="0" nfo="0" vehicles="t" phone="+17147734262" fax="17144606520" account="" email="" phone2="" notes="" contact="" /><marker id="220" name="Orange Courier" place_id="CHIJJbFTBaLY3IAR-mQjP8ESQfc" lat="0.000000" lng="0.000000" city="Santa Ana" state="CA" grade="3" usa="0" iac="0" hm="0" tsa="0" nfo="0" vehicles="n" phone="+19499751313" fax="19499750505" account="" email="" phone2="714-384-3552" notes="spepak" contact="Brandon" /><marker id="221" name="Central Courier" place_id="CHIJny8ViD9N6IARd00bjni05KA" lat="0.000000" lng="0.000000" city="Santa Barbara" state="CA" grade="3" usa="0" iac="0" hm="0" tsa="0" nfo="0" vehicles="n" phone="+18056541145" fax="18056541274" account="" email="" phone2="" notes="check rates" contact="" /><marker id="222" name="Go Getters" place_id="" lat="0.000000" lng="0.000000" city="Santa Barbara" state="CA" grade="3" usa="0" iac="0" hm="0" tsa="0" nfo="0" vehicles="n" phone="+18052597903" fax="" account="" email="luis@sbgogetters.com" phone2="" notes="" contact="" /><marker id="223" name="Alpine Courier" place_id="" lat="0.000000" lng="0.000000" city="Santa Clara" state="CA" grade="3" usa="0" iac="0" hm="0" tsa="0" nfo="0" vehicles="n" phone="+14085889990" fax="14085889999" account="" email="" phone2="" notes="" contact="" /><marker id="224" name="Faultline Express" place_id="" lat="0.000000" lng="0.000000" city="Santa Clara" state="CA" grade="3" usa="0" iac="0" hm="0" tsa="0" nfo="0" vehicles="n" phone="+14089809400" fax="" account="" email="" phone2="" notes="" contact="" /><marker id="225" name="Ggts" place_id="" lat="0.000000" lng="0.000000" city="Santa Clara" state="CA" grade="3" usa="0" iac="0" hm="0" tsa="0" nfo="0" vehicles="n" phone="+14088506233" fax="" account="" email="" phone2="" notes="" contact="" /><marker id="226" name="Enterprise Courier" place_id="" lat="0.000000" lng="0.000000" city="Santa Clarita" state="CA" grade="3" usa="0" iac="0" hm="0" tsa="0" nfo="0" vehicles="n" phone="+18006383345" fax="16612963385" account="" email="" phone2="c: 661510-5298" notes="" contact="Louis Green" /><marker id="227" name="Liberty Express" place_id="" lat="0.000000" lng="0.000000" city="Santa Clarita" state="CA" grade="4" usa="0" iac="0" hm="0" tsa="0" nfo="0" vehicles="n" phone="+16618161449" fax="16617292618" account="" email="" phone2="" notes="" contact="" /><marker id="228" name="Clutch Courier" place_id="" lat="0.000000" lng="0.000000" city="Santa Cruz" state="CA" grade="3" usa="0" iac="0" hm="0" tsa="0" nfo="0" vehicles="n" phone="+18314660560" fax="" account="" email="" phone2="" notes="" contact="" /><marker id="229" name="All Counties Delivery" place_id="" lat="0.000000" lng="0.000000" city="Santa Maria" state="CA" grade="3" usa="0" iac="0" hm="0" tsa="0" nfo="0" vehicles="n" phone="+18059294994" fax="" account="" email="" phone2="" notes="" contact="" /><marker id="230" name="Asap Messenger Services" place_id="CHIJL-gAj_cGhYAR__C2-ZW8Yic" lat="0.000000" lng="0.000000" city="Santa Rosa" state="CA" grade="3" usa="0" iac="0" hm="0" tsa="0" nfo="0" vehicles="n" phone="+17072242579" fax="" account="" email="" phone2="" notes="" contact="" /><marker id="231" name="Ed Ex Courier" place_id="" lat="0.000000" lng="0.000000" city="Santa Rosa" state="CA" grade="3" usa="0" iac="0" hm="0" tsa="0" nfo="0" vehicles="n" phone="+14158791051" fax="18883552648" account="" email="edwardugarte@msn.com" phone2="" notes="" contact="Edward" /><marker id="232" name="Georges Taxi" place_id="" lat="0.000000" lng="0.000000" city="Santa Rosa" state="CA" grade="3" usa="0" iac="0" hm="0" tsa="0" nfo="0" vehicles="n" phone="+17075463322" fax="" account="" email="" phone2="" notes="cc ok" contact="" /><marker id="233" name="Rapid Express Courier System" place_id="CHIJ-V6dkBM4hIARpEwrKuQYcsw" lat="0.000000" lng="0.000000" city="Santa Rosa" state="CA" grade="3" usa="0" iac="0" hm="0" tsa="0" nfo="0" vehicles="n" phone="+17075859998" fax="17075406082" account="" email="" phone2="" notes="" contact="" /><marker id="234" name="On-time Courier Service" place_id="" lat="0.000000" lng="0.000000" city="Stockton" state="CA" grade="3" usa="0" iac="0" hm="0" tsa="0" nfo="0" vehicles="n" phone="+12099312001" fax="12093042292" account="" email="" phone2="" notes="no genoptix Rush = 2.25 mile" contact="Bob" /><marker id="235" name="Dynamics" place_id="" lat="0.000000" lng="0.000000" city="Thousand Oaks" state="CA" grade="3" usa="0" iac="0" hm="0" tsa="0" nfo="0" vehicles="n" phone="+18004398900" fax="" account="" email="" phone2="" notes="" contact="" /><marker id="236" name="A-1 Taxi" place_id="CHIJ6TS0xQMHkYAR-9UophCrhCk" lat="0.000000" lng="0.000000" city="Turlock" state="CA" grade="3" usa="0" iac="0" hm="0" tsa="0" nfo="0" vehicles="n" phone="+12098588100" fax="" account="" email="" phone2="" notes="" contact="" /><marker id="237" name="Adobe Shipping" place_id="" lat="0.000000" lng="0.000000" city="Twenty-nine Palms" state="CA" grade="3" usa="0" iac="0" hm="0" tsa="0" nfo="0" vehicles="n" phone="+17603671414" fax="17603671740" account="" email="" phone2="" notes="" contact="Pam & Tim" /><marker id="238" name="Delery's & Family Delivery" place_id="CHIJ-yk60yBkgYARlfCtyfSBpqs" lat="0.000000" lng="0.000000" city="Ukiah" state="CA" grade="3" usa="0" iac="0" hm="0" tsa="0" nfo="0" vehicles="n" phone="+17074689434" fax="" account="" email="" phone2="" notes="" contact="" /><marker id="239" name="Hey Taxi" place_id="" lat="0.000000" lng="0.000000" city="Ukiah" state="CA" grade="3" usa="0" iac="0" hm="0" tsa="0" nfo="0" vehicles="n" phone="+17074671200" fax="17074626137" account="" email="deleryandfamily@att.net" phone2="" notes="" contact="James" /><marker id="240" name="Aaa Courier" place_id="CHIJAYGYDVQ9hYARs2vZ-0AwHgk" lat="0.000000" lng="0.000000" city="Vacaville" state="CA" grade="3" usa="0" iac="0" hm="0" tsa="0" nfo="0" vehicles="n" phone="+17074466967" fax="" account="" email="" phone2="" notes="" contact="" /><marker id="241" name="Central Courier" place_id="" lat="0.000000" lng="0.000000" city="Ventura" state="CA" grade="5" usa="0" iac="0" hm="0" tsa="0" nfo="0" vehicles="n" phone="+18004279949" fax="18056541274" account="" email="ccifast@pacbell.net" phone2="" notes="$30 min." contact="Jerry" /><marker id="242" name="Edward Van Sloten" place_id="" lat="0.000000" lng="0.000000" city="Victorville" state="CA" grade="4" usa="5969" iac="0" hm="0" tsa="0" nfo="0" vehicles="n" phone="+17609522789" fax="" account="" email="" phone2="" notes="" contact="" /><marker id="244" name="Maxicab" place_id="" lat="0.000000" lng="0.000000" city="Victorville" state="CA" grade="3" usa="0" iac="0" hm="0" tsa="0" nfo="0" vehicles="n" phone="+17605595288" fax="" account="" email="" phone2="" notes="" contact="" /><marker id="245" name="Peninsula Messenger Service" place_id="CHIJjQMMATgmlYARwN5Zu5dSt-4" lat="0.000000" lng="0.000000" city="Visalia" state="CA" grade="3" usa="0" iac="0" hm="0" tsa="0" nfo="0" vehicles="n" phone="+15597346328" fax="15597343983" account="" email="" phone2="" notes="" contact="Aaron" /><marker id="246" name="Go Getters Delivery" place_id="CHIJi3U21hXUmoARapUgETA2j-U" lat="0.000000" lng="0.000000" city="W Sacramento" state="CA" grade="3" usa="0" iac="0" hm="0" tsa="0" nfo="0" vehicles="n" phone="+19163724646" fax="19163728412" account="" email="" phone2="" notes="" contact="Donna" /><marker id="247" name="Rancho Runners Courier Service" place_id="CHIJt_K0ilGb3IARTBIJ4sxNz8w" lat="0.000000" lng="0.000000" city="Wildomar" state="CA" grade="5" usa="0" iac="0" hm="0" tsa="0" nfo="0" vehicles="n" phone="+19516769564" fax="19512459710" account="" email="" phone2="" notes="" contact="" /><marker id="248" name="James Winsor" place_id="" lat="0.000000" lng="0.000000" city="Arvada" state="CO" grade="3" usa="0" iac="0" hm="0" tsa="0" nfo="0" vehicles="n" phone="+13036683818" fax="18662797499" account="" email="" phone2="" notes="one man show" contact="James" /><marker id="249" name="American Expediting" place_id="CHIJZ2jfxVN7bIcRuTy385tK1zY" lat="36.088818" lng="-115.211678" city="Aurora" state="CO" grade="5" usa="0" iac="1" hm="0" tsa="0" nfo="0" vehicles="n" phone="+13035377039" fax="13033710919" account="#23370" email="" phone2="" notes="" contact="" /><marker id="250" name="Rap Express" place_id="CHIJh0sJTjpGE4cRayHTUDCtusQ" lat="0.000000" lng="0.000000" city="Colorado Springs" state="CO" grade="3" usa="0" iac="0" hm="0" tsa="0" nfo="0" vehicles="n" phone="+17195979667" fax="17195976234" account="" email="" phone2="719-491-6189" notes="" contact="" /><marker id="251" name="Your Courier Service" place_id="ChIJC-okME9EE4cR_5LjghpZnQ8" lat="0.000000" lng="0.000000" city="Colorado Springs" state="CO" grade="3" usa="0" iac="0" hm="0" tsa="0" nfo="0" vehicles="n" phone="+17193753591" fax="17194347942" account="" email="office@ycs570.com" phone2="c: 719-964-7162" notes="" contact="" /><marker id="252" name="Front Range Couriers Ltd" place_id="" lat="0.000000" lng="0.000000" city="Denver" state="CO" grade="3" usa="0" iac="0" hm="0" tsa="0" nfo="0" vehicles="n" phone="+13033713003" fax="13033713366" account="" email="" phone2="" notes="" contact="Richard" /><marker id="253" name="Jumpp Logistics" place_id="" lat="0.000000" lng="0.000000" city="Denver" state="CO" grade="3" usa="0" iac="0" hm="0" tsa="0" nfo="0" vehicles="n" phone="+17203560100" fax="" account="" email="bonniek@blastexpress.com" phone2="720-833-0227" notes="formerly Blast" contact="Larry" /><marker id="254" name="Med Stat Courier" place_id="CHIJu3c80P9SaYcRghjNtpxXMAs" lat="0.000000" lng="0.000000" city="Denver" state="CO" grade="5" usa="0" iac="0" hm="0" tsa="0" nfo="0" vehicles="n" phone="+17202218240" fax="17202218503" account="" email="" phone2="" notes="good rates for far" contact="" /><marker id="255" name="Quicksilver" place_id="ChIJr4brrqGGa4cREcYUGzEIqLs" lat="0.000000" lng="0.000000" city="Denver" state="CO" grade="4" usa="0" iac="0" hm="0" tsa="0" nfo="0" vehicles="n" phone="+13032325800" fax="13032321950" account="#9998" email="" phone2="" notes="$$$ for long" contact="Mike Applegate" /><marker id="256" name="Rocky Mountain Mail Delivery Services" place_id="CHIJUZZJn7Z7bIcRYhRu-JyU3X8" lat="0.000000" lng="0.000000" city="Denver" state="CO" grade="3" usa="0" iac="0" hm="0" tsa="0" nfo="0" vehicles="n" phone="+13039404998" fax="17204348386" account="" email="milehicourier@msn.com" phone2="" notes="FAX # is an actual contact #" contact="John" /><marker id="257" name="Sdi Corp" place_id="ChIJoxzzqdGFbIcRMuCPjY3pbu8" lat="0.000000" lng="0.000000" city="Denver" state="CO" grade="3" usa="0" iac="0" hm="0" tsa="0" nfo="0" vehicles="n" phone="+13032201700" fax="" account="" email="" phone2="" notes="" contact="" /><marker id="258" name="Tech Center Couriers" place_id="CHIJYUOLeiiBbIcRDKMIQqGJIWc" lat="0.000000" lng="0.000000" city="Denver" state="CO" grade="3" usa="0" iac="0" hm="0" tsa="0" nfo="0" vehicles="n" phone="+13037709616" fax="13036933900" account="" email="" phone2="Patty: 303-907-7595303-815-0646,Larry: 303-241-9875" notes="" contact="" /><marker id="259" name="Durango Taxi" place_id="" lat="0.000000" lng="0.000000" city="Durango" state="CO" grade="3" usa="0" iac="0" hm="0" tsa="0" nfo="0" vehicles="n" phone="+19702594818" fax="" account="" email="" phone2="" notes="" contact="" /><marker id="260" name="The Feet-velocity Boys" place_id="" lat="0.000000" lng="0.000000" city="Fort Collins" state="CO" grade="5" usa="0" iac="0" hm="0" tsa="0" nfo="0" vehicles="n" phone="+19704938110" fax="19704938121" account="" email="" phone2="970-493-8110" notes="FLAT RATES-THEFEET.COM" contact="Dennis" /><marker id="261" name="Osm" place_id="" lat="0.000000" lng="0.000000" city="Glenwood Spring" state="CO" grade="3" usa="0" iac="0" hm="0" tsa="0" nfo="0" vehicles="n" phone="+19709458552" fax="" account="" email="" phone2="" notes="" contact="" /><marker id="262" name="Dove Courier" place_id="" lat="0.000000" lng="0.000000" city="Grand Junction" state="CO" grade="3" usa="0" iac="0" hm="0" tsa="0" nfo="0" vehicles="n" phone="+19702561850" fax="19705235679" account="" email="" phone2="" notes="$20 min" contact="Linda" /><marker id="263" name="Kangaroo Express" place_id="CHIJYRdFm3IcR4cRbjZ7YKqRIZs" lat="0.000000" lng="0.000000" city="Grand Junction" state="CO" grade="3" usa="0" iac="0" hm="0" tsa="0" nfo="0" vehicles="n" phone="+19702453522" fax="19702439624" account="#2831" email="" phone2="" notes="mail check" contact="Mary" /><marker id="264" name="Western Slope Courier" place_id="" lat="39.065128" lng="-108.550125" city="Grand Junction" state="CO" grade="2" usa="0" iac="0" hm="0" tsa="0" nfo="0" vehicles="n" phone="+19702605168" fax="" account="" email="" phone2="" notes="$$$" contact="" /><marker id="265" name="The Delivery Co" place_id="" lat="0.000000" lng="0.000000" city="Gunnison" state="CO" grade="3" usa="0" iac="0" hm="0" tsa="0" nfo="0" vehicles="n" phone="+19702094194" fax="" account="" email="patmckee@q.com" phone2="" notes="" contact="" /><marker id="266" name="Med Stat Courier" place_id="CHIJu3c80P9SaYcRghjNtpxXMAs" lat="0.000000" lng="0.000000" city="Loveland" state="CO" grade="5" usa="0" iac="0" hm="0" tsa="0" nfo="0" vehicles="n" phone="+17202218240" fax="17202218503" account="" email="" phone2="" notes="" contact="Rick" /><marker id="267" name="Busy Bee Delivery" place_id="" lat="0.000000" lng="0.000000" city="Parachute" state="CO" grade="3" usa="0" iac="0" hm="0" tsa="0" nfo="0" vehicles="n" phone="+19704568392" fax="" account="" email="buzz@busybeedelivery.com" phone2="" notes="" contact="Adel" /><marker id="268" name="Pueblo City Cab" place_id="CHIJ_W5OpeaiE4cR3ozn4539Yf4" lat="0.000000" lng="0.000000" city="Pueblo" state="CO" grade="3" usa="0" iac="0" hm="0" tsa="0" nfo="0" vehicles="n" phone="+17195432525" fax="17195426155" account="" email="" phone2="" notes="" contact="" /><marker id="269" name="Kangaroo Express Of Southern Colorado" place_id="CHIJOXtGtx2jE4cRESkNF97m7mI" lat="0.000000" lng="0.000000" city="Pueblo" state="CO" grade="3" usa="0" iac="0" hm="0" tsa="0" nfo="0" vehicles="n" phone="+17195436900" fax="" account="" email="" phone2="" notes="" contact="" /><marker id="270" name="On The Dot" place_id="CHIJmYSP4gpRZYcResgDGzO4Sro" lat="0.000000" lng="0.000000" city="Pueblo" state="CO" grade="3" usa="0" iac="0" hm="0" tsa="0" nfo="0" vehicles="n" phone="+17198217940" fax="17195478470" account="" email="" phone2="" notes="Phone is for Heartland Hospitality Premier" contact="" /><marker id="271" name="Mountain Town Delivery" place_id="ChIJQ8PGqoZoQocRKb69QSeMDmE" lat="40.508804" lng="-106.859200" city="Steamboat Springs" state="CO" grade="3" usa="0" iac="0" hm="0" tsa="0" nfo="0" vehicles="n" phone="+19708711755" fax="" account="" email="" phone2="c: 970-846-8481" notes="" contact="" /><marker id="272" name="Tom Heron Enterprises" place_id="" lat="0.000000" lng="0.000000" city="Steamboat Springs" state="CO" grade="3" usa="0" iac="0" hm="0" tsa="0" nfo="0" vehicles="n" phone="+19708195370" fax="" account="" email="tom.heron@comcast.net" phone2="" notes="" contact="" /><marker id="273" name="3-d Delivery Systems" place_id="" lat="0.000000" lng="0.000000" city="Hartford" state="CT" grade="3" usa="0" iac="0" hm="0" tsa="0" nfo="0" vehicles="n" phone="+18604638613" fax="" account="" email="gkuzoian@comcast.net" phone2="h: 860-561-4474" notes="" contact="" /><marker id="274" name="A Premier Courier" place_id="" lat="0.000000" lng="0.000000" city="Hartford" state="CT" grade="5" usa="0" iac="0" hm="0" tsa="0" nfo="0" vehicles="n" phone="+18609256292" fax="18609256298" account="" email="dispatch@premierexpress.net" phone2="" notes="" contact="" /><marker id="275" name="American Expediting" place_id="CHIJgw3Jhjmt54kR0D10NapwqTM" lat="0.000000" lng="0.000000" city="Hartford" state="CT" grade="3" usa="0" iac="1" hm="0" tsa="0" nfo="0" vehicles="n" phone="+18603866560" fax="18603709466" account="" email="" phone2="" notes="" contact="" /><marker id="276" name="Cardinal Express" place_id="" lat="0.000000" lng="0.000000" city="Hartford" state="CT" grade="3" usa="0" iac="0" hm="0" tsa="0" nfo="0" vehicles="n" phone="+18605292587" fax="18605292972" account="" email="cjones@cardinalexpress.com" phone2="" notes="" contact="Chris" /><marker id="277" name="Pro Courier" place_id="" lat="0.000000" lng="0.000000" city="Hartford" state="CT" grade="3" usa="0" iac="0" hm="0" tsa="0" nfo="0" vehicles="t" phone="+18609537777" fax="" account="" email="" phone2="" notes="" contact="" /><marker id="278" name="Raa Delivery" place_id="" lat="0.000000" lng="0.000000" city="Hartford" state="CT" grade="3" usa="0" iac="0" hm="0" tsa="0" nfo="0" vehicles="n" phone="+18605831090" fax="" account="" email="" phone2="" notes="" contact="" /><marker id="279" name="Steven Dickenson Air Charter" place_id="" lat="0.000000" lng="0.000000" city="Hartford" state="CT" grade="3" usa="0" iac="0" hm="0" tsa="0" nfo="0" vehicles="n" phone="+12032695089" fax="" account="" email="" phone2="" notes="600 lbs limit" contact="Steven" /><marker id="280" name="A Premier Courier" place_id="" lat="0.000000" lng="0.000000" city="New Haven" state="CT" grade="3" usa="0" iac="0" hm="0" tsa="0" nfo="0" vehicles="n" phone="+18132496000" fax="" account="" email="" phone2="" notes="" contact="" /><marker id="281" name="Gardella Connection" place_id="" lat="0.000000" lng="0.000000" city="Norwalk" state="CT" grade="5" usa="0" iac="0" hm="0" tsa="0" nfo="0" vehicles="n" phone="+12038534222" fax="12038384522" account="#47001" email="courier@gardellas.com" phone2="" notes="1.80 mile" contact="HERM" /><marker id="282" name="Norwich Express" place_id="CHIJiZKCuipu5okRedPYm1tsY0U" lat="0.000000" lng="0.000000" city="Norwich" state="CT" grade="3" usa="0" iac="0" hm="0" tsa="0" nfo="0" vehicles="n" phone="+18608894734" fax="" account="" email="" phone2="" notes="" contact="" /><marker id="283" name="Greenfield Express" place_id="" lat="0.000000" lng="0.000000" city="Plainville" state="CT" grade="3" usa="0" iac="0" hm="0" tsa="0" nfo="0" vehicles="n" phone="+18607473855" fax="18607474904" account="" email="" phone2="" notes="" contact="Miles" /><marker id="284" name="Rubin Reyes" place_id="" lat="0.000000" lng="0.000000" city="Stratford" state="CT" grade="4" usa="6104" iac="0" hm="0" tsa="0" nfo="0" vehicles="n" phone="+12036194969" fax="" account="" email="" phone2="" notes="long" contact="" /><marker id="285" name="Chesapeake Logistics" place_id="" lat="0.000000" lng="0.000000" city="Beltsville" state="DC" grade="3" usa="0" iac="0" hm="0" tsa="0" nfo="0" vehicles="n" phone="+13019311771" fax="13019376810" account="#1235" email="" phone2="" notes="" contact="" /><marker id="286" name="Falcon Express" place_id="CHIJz40arznDt4kRdRK-iUrmliw" lat="0.000000" lng="0.000000" city="Beltsville" state="DC" grade="4" usa="0" iac="0" hm="0" tsa="0" nfo="0" vehicles="n" phone="+18002969696" fax="12402643234" account="#11448" email="" phone2="" notes="NOT FOR NFO Michael Nalle 240 372 4423 Gordon Muir 240 264 1206" contact="Gordon" /><marker id="287" name="Translogistix - Flash Global Logistics" place_id="ChIJ70BKgkLnt4kR20cJIQ6qlQA" lat="0.000000" lng="0.000000" city="Beltsville" state="DC" grade="3" usa="0" iac="0" hm="0" tsa="0" nfo="0" vehicles="n" phone="+13014950000" fax="13016089072" account="" email="" phone2="" notes="translogistix.com" contact="Scott Foreman" /><marker id="288" name="Apollo Express Courier" place_id="" lat="0.000000" lng="0.000000" city="Falls Church" state="DC" grade="3" usa="0" iac="0" hm="0" tsa="0" nfo="0" vehicles="n" phone="+18884609011" fax="17035320977" account="" email="" phone2="" notes="" contact="Steve" /><marker id="289" name="Iad Xpress" place_id="" lat="0.000000" lng="0.000000" city="Gainesville" state="DC" grade="3" usa="0" iac="0" hm="0" tsa="0" nfo="0" vehicles="n" phone="+18883083831" fax="17036652342" account="" email="" phone2="703-362-8627" notes="good for long only" contact="" /><marker id="290" name="Runners Inc." place_id="CHIJvSqNtm3Tt4kR5iTXRtAwHfA" lat="0.000000" lng="0.000000" city="Gaithersburg" state="DC" grade="4" usa="0" iac="0" hm="0" tsa="0" nfo="0" vehicles="n" phone="+13019487500" fax="13013301451" account="#1919" email="tsmith@runnersinc.com" phone2="" notes="no sta's" contact="Thor" /><marker id="291" name="Jnk - Atlantis" place_id="" lat="0.000000" lng="0.000000" city="Herndon" state="DC" grade="3" usa="0" iac="0" hm="0" tsa="0" nfo="0" vehicles="n" phone="+17039457145" fax="18889013434" account="" email="" phone2="" notes="" contact="" /><marker id="292" name="City Express Courier Service" place_id="" lat="0.000000" lng="0.000000" city="Rockville" state="MD" grade="3" usa="0" iac="0" hm="0" tsa="0" nfo="0" vehicles="n" phone="+12403337324" fax="12403337320" account="#70016" email="eric@citypl.com" phone2="" notes="" contact="" /><marker id="293" name="A A Courier Service" place_id="CHIJnw3gjjHAt4kRNYYXuyL8HPg" lat="0.000000" lng="0.000000" city="Springdale" state="DC" grade="3" usa="0" iac="0" hm="0" tsa="0" nfo="0" vehicles="n" phone="+13013865702" fax="13013223238" account="" email="" phone2="" notes="" contact="Alan Andrews" /><marker id="294" name="American Expediting" place_id="" lat="0.000000" lng="0.000000" city="Washington" state="DC" grade="1" usa="0" iac="1" hm="0" tsa="0" nfo="0" vehicles="n" phone="+13013228100" fax="13013228700" account="" email="" phone2="" notes="" contact="Irwin" /><marker id="295" name="Apple Courier Inc." place_id="" lat="0.000000" lng="0.000000" city="Washington" state="DC" grade="3" usa="0" iac="0" hm="0" tsa="0" nfo="0" vehicles="n" phone="+18886203300" fax="12023387600" account="#8298" email="" phone2="" notes="applecouriersinc.com" contact="Libby" /><marker id="296" name="Atlantis Logistics" place_id="CHIJS9epkYo4tokRqRiq498rCZc" lat="0.000000" lng="0.000000" city="Washington" state="DC" grade="5" usa="0" iac="0" hm="0" tsa="0" nfo="0" vehicles="n" phone="+17034670363" fax="17034670374" account="" email="orderentry@atlantisusa.com" phone2="" notes="" contact="" /><marker id="297" name="Chesapeake Logistics" place_id="" lat="0.000000" lng="0.000000" city="Washington" state="DC" grade="3" usa="0" iac="0" hm="0" tsa="0" nfo="0" vehicles="n" phone="+13019311771" fax="13019376810" account="#1235" email="" phone2="" notes="" contact="Cynthia" /><marker id="298" name="Early Bird Delivery" place_id="CHIJ2XlUwDDbt4kRJOmMZpRokNs" lat="0.000000" lng="0.000000" city="Washington" state="DC" grade="3" usa="0" iac="0" hm="0" tsa="0" nfo="0" vehicles="n" phone="+13019890038" fax="13013840679" account="" email="" phone2="301-257-6768" notes="" contact="David" /><marker id="299" name="Iad Express" place_id="" lat="0.000000" lng="0.000000" city="Washington" state="DC" grade="4" usa="0" iac="0" hm="1" tsa="0" nfo="0" vehicles="n" phone="+17033628672" fax="" account="" email="" phone2="" notes="" contact="" /><marker id="300" name="Lasership" place_id="" lat="0.000000" lng="0.000000" city="Washington" state="DC" grade="3" usa="0" iac="0" hm="0" tsa="0" nfo="0" vehicles="n" phone="+12023477663" fax="12023473410" account="#062993" email="" phone2="Shane: 703-761-9030" notes="" contact="Mika" /><marker id="301" name="Midnight Air Corp" place_id="ChIJmVvlj9ZjOIgRvgDpTQ4A4GE" lat="0.000000" lng="0.000000" city="Washington" state="DC" grade="4" usa="0" iac="0" hm="1" tsa="0" nfo="0" vehicles="n" phone="+18888888463" fax="" account="" email="" phone2="" notes="" contact="" /><marker id="302" name="Timothy Thomas" place_id="" lat="0.000000" lng="0.000000" city="Washington" state="DC" grade="4" usa="6308" iac="0" hm="1" tsa="0" nfo="0" vehicles="n" phone="+15402722633" fax="" account="" email="" phone2="" notes="" contact="" /><marker id="303" name="Trans Time Express" place_id="" lat="0.000000" lng="0.000000" city="Washington" state="DC" grade="5" usa="0" iac="0" hm="0" tsa="0" nfo="0" vehicles="n" phone="+12024088877" fax="" account="#B227" email="" phone2="" notes="" contact="" /><marker id="304" name="Transcom Express" place_id="" lat="0.000000" lng="0.000000" city="Washington" state="DC" grade="3" usa="0" iac="0" hm="0" tsa="0" nfo="0" vehicles="n" phone="+12027890505" fax="17035255206" account="" email="" phone2="" notes="" contact="" /><marker id="305" name="Urgent Courier" place_id="" lat="0.000000" lng="0.000000" city="Washington" state="DC" grade="4" usa="0" iac="0" hm="1" tsa="0" nfo="0" vehicles="n" phone="+18886817864" fax="" account="" email="urgent@never-late.com" phone2="" notes="" contact="" /><marker id="306" name="Vmw" place_id="" lat="0.000000" lng="0.000000" city="Washington" state="DC" grade="3" usa="0" iac="0" hm="0" tsa="0" nfo="0" vehicles="t" phone="+18665047575" fax="" account="" email="" phone2="" notes="" contact="" /><marker id="307" name="Washington Courier" place_id="" lat="0.000000" lng="0.000000" city="Washington" state="DC" grade="3" usa="0" iac="0" hm="0" tsa="0" nfo="0" vehicles="n" phone="+18008274500" fax="17035188869" account="" email="" phone2="" notes="" contact="" /><marker id="308" name="Lisbon Logistics" place_id="" lat="0.000000" lng="0.000000" city="Washington" state="DC" grade="3" usa="0" iac="0" hm="0" tsa="0" nfo="0" vehicles="n" phone="+12819143696" fax="" account="" email="" phone2="" notes="16' straight" contact="Peter" /><marker id="309" name="Owen Richardson" place_id="" lat="0.000000" lng="0.000000" city="Delmar" state="DE" grade="3" usa="6224" iac="0" hm="0" tsa="0" nfo="0" vehicles="n" phone="+13025690501" fax="" account="" email="" phone2="" notes="" contact="" /><marker id="310" name="Bearwynn Taxi" place_id="" lat="0.000000" lng="0.000000" city="Dover" state="DE" grade="3" usa="0" iac="0" hm="0" tsa="0" nfo="0" vehicles="n" phone="+13026707454" fax="" account="" email="" phone2="" notes="" contact="" /><marker id="311" name="Mary Go Round" place_id="" lat="0.000000" lng="0.000000" city="Dover" state="DE" grade="3" usa="0" iac="0" hm="0" tsa="0" nfo="0" vehicles="n" phone="+13026973250" fax="" account="" email="mountz59@aol.com" phone2="302-382-3305" notes="refuses everything" contact="Mary" /><marker id="312" name="Preferred Transit" place_id="" lat="0.000000" lng="0.000000" city="Dover" state="DE" grade="3" usa="0" iac="0" hm="0" tsa="0" nfo="0" vehicles="n" phone="+13024949425" fax="" account="" email="support@preferredtransitde.com" phone2="" notes="" contact="" /><marker id="313" name="Xpert Xpress" place_id="" lat="0.000000" lng="0.000000" city="Federalsburg" state="DE" grade="3" usa="0" iac="0" hm="0" tsa="0" nfo="0" vehicles="n" phone="+14108208650" fax="14107540710" account="" email="" phone2="" notes="" contact="Katie" /><marker id="314" name="Gazzella Corporate Courier" place_id="CHIJI_kR7mwHx4kRe3Ztl4wQrAI" lat="0.000000" lng="0.000000" city="Newark" state="DE" grade="3" usa="0" iac="0" hm="0" tsa="0" nfo="0" vehicles="n" phone="+13022669532" fax="" account="" email="" phone2="c: 610-637-3929" notes="" contact="" /><marker id="315" name="Umrah Limo" place_id="" lat="0.000000" lng="0.000000" city="Newark" state="DE" grade="3" usa="0" iac="0" hm="0" tsa="0" nfo="0" vehicles="n" phone="+13024014991" fax="" account="" email="" phone2="" notes="" contact="" /><marker id="316" name="Don's Courier" place_id="" lat="0.000000" lng="0.000000" city="Parsonsburg" state="DE" grade="3" usa="0" iac="0" hm="0" tsa="0" nfo="0" vehicles="n" phone="+14108609214" fax="" account="" email="" phone2="c: 410-422-1821" notes="(seafordDE)" contact="" /><marker id="317" name="Labaik Tours" place_id="CHIJbeesGksZyIkRgjFfCed_2XM" lat="0.000000" lng="0.000000" city="Wilmington" state="DE" grade="3" usa="0" iac="0" hm="0" tsa="0" nfo="0" vehicles="n" phone="+14106618686" fax="" account="" email="" phone2="" notes="" contact="" /><marker id="318" name="Rapid Delivery Service" place_id="" lat="0.000000" lng="0.000000" city="Bradenton" state="FL" grade="3" usa="0" iac="0" hm="0" tsa="0" nfo="0" vehicles="n" phone="+19417445800" fax="" account="" email="rapiddeliveryinc@aol.com" phone2="" notes="" contact="" /><marker id="320" name="Angele's Express Delivery" place_id="CHIJt7Ag8av6wogRuloy1iEKg1k" lat="0.000000" lng="0.000000" city="Clearwater" state="FL" grade="3" usa="0" iac="0" hm="0" tsa="0" nfo="0" vehicles="n" phone="+17274612525" fax="17274612521" account="#usa31" email="" phone2="" notes="" contact="" /><marker id="321" name="Us Courier" place_id="" lat="0.000000" lng="0.000000" city="Clearwater" state="FL" grade="5" usa="0" iac="0" hm="0" tsa="0" nfo="0" vehicles="n" phone="+17275842508" fax="17275889664" account="" email="uscdelivery@aol.com" phone2="" notes="$3-5" contact="Barry-andy" /><marker id="322" name="Courier Solutions" place_id="" lat="0.000000" lng="0.000000" city="Dade" state="FL" grade="3" usa="0" iac="0" hm="0" tsa="0" nfo="0" vehicles="n" phone="+19547927272" fax="19547928755" account="" email="" phone2="" notes="10 East Coast Dade BrowardPalm Beach - 5450 S State Rd 7 #34 Davie FL 33314" contact="Steve Stroh" /><marker id="323" name="Kelley's Courier Services" place_id="CHIJKy7UZkoN54gRuvJTKnCEAsE" lat="0.000000" lng="0.000000" city="Davenport" state="FL" grade="3" usa="0" iac="0" hm="0" tsa="0" nfo="0" vehicles="n" phone="+14079272500" fax="" account="" email="" phone2="" notes="" contact="" /><marker id="324" name="Angele's Express" place_id="" lat="0.000000" lng="0.000000" city="Daytona Beach" state="FL" grade="3" usa="0" iac="0" hm="0" tsa="0" nfo="0" vehicles="n" phone="+17274612525" fax="" account="#usa31" email="" phone2="" notes="Good rates" contact="" /><marker id="325" name="Blue Streak Couriers" place_id="" lat="0.000000" lng="0.000000" city="Daytona Beach" state="FL" grade="3" usa="0" iac="1" hm="0" tsa="0" nfo="0" vehicles="n" phone="+1" fax="" account="" email="" phone2="" notes="" contact="" /><marker id="326" name="County Wide Transportation" place_id="" lat="0.000000" lng="0.000000" city="Daytona Beach" state="FL" grade="3" usa="0" iac="0" hm="0" tsa="0" nfo="0" vehicles="n" phone="+13864536212" fax="13862552730" account="" email="" phone2="" notes="$25 min" contact="Dave" /><marker id="327" name="Daytona Courier" place_id="" lat="0.000000" lng="0.000000" city="Daytona Beach" state="FL" grade="3" usa="0" iac="0" hm="0" tsa="0" nfo="0" vehicles="n" phone="+13862556525" fax="" account="" email="" phone2="" notes="" contact="" /><marker id="328" name="Roltime Express" place_id="" lat="0.000000" lng="0.000000" city="Daytona Beach" state="FL" grade="3" usa="0" iac="0" hm="0" tsa="0" nfo="0" vehicles="n" phone="+13866774878" fax="18888292273" account="" email="" phone2="" notes="last resort" contact="Rich" /><marker id="329" name="Volusia Process & Courier" place_id="CHIJUTcgEb3c5ogRESdPHj9Rd2E" lat="29.284527" lng="-81.088310" city="Daytona Beach" state="FL" grade="5" usa="0" iac="0" hm="0" tsa="0" nfo="0" vehicles="n" phone="+13866776565" fax="" account="" email="" phone2="386-295-1628" notes="" contact="" /><marker id="330" name="American Expediting" place_id="" lat="0.000000" lng="0.000000" city="Fort Lauderdale" state="FL" grade="3" usa="0" iac="1" hm="0" tsa="0" nfo="0" vehicles="n" phone="+18005253278" fax="13056232845" account="" email="" phone2="" notes="" contact="" /><marker id="331" name="Barefoot" place_id="" lat="0.000000" lng="0.000000" city="Fort Lauderdale" state="FL" grade="5" usa="0" iac="0" hm="0" tsa="0" nfo="0" vehicles="n" phone="+19547824360" fax="19547828036" account="" email="" phone2="" notes="" contact="" /><marker id="332" name="Dave Foster" place_id="" lat="0.000000" lng="0.000000" city="Fort Lauderdale" state="FL" grade="1" usa="6139" iac="0" hm="0" tsa="0" nfo="0" vehicles="n" phone="+17542443970" fax="" account="" email="" phone2="" notes="" contact="" /><marker id="333" name="Sunshine State Messenger Services" place_id="ChIJa144AISu2YgRuJTyUWE1p7A" lat="0.000000" lng="0.000000" city="Fort Lauderdale" state="FL" grade="2" usa="0" iac="0" hm="0" tsa="0" nfo="0" vehicles="n" phone="+19549758100" fax="19549712693" account="#6465" email="" phone2="" notes="" contact="Susan" /><marker id="334" name="A Flat Rate" place_id="" lat="0.000000" lng="0.000000" city="Ft Myers" state="FL" grade="2" usa="0" iac="0" hm="0" tsa="0" nfo="0" vehicles="n" phone="+12399928027" fax="12399928027" account="" email="" phone2="800-741-6369" notes="$$$$" contact="" /><marker id="335" name="American Expediting" place_id="" lat="0.000000" lng="0.000000" city="Ft Myers" state="FL" grade="3" usa="0" iac="1" hm="0" tsa="0" nfo="0" vehicles="n" phone="+13056232844" fax="13056232845" account="" email="" phone2="" notes="" contact="" /><marker id="336" name="Courier Connections" place_id="ChIJs_iOnh1C24gRCrKGCAHT-Uc" lat="26.685280" lng="-81.884567" city="Ft Myers" state="FL" grade="5" usa="0" iac="0" hm="0" tsa="0" nfo="0" vehicles="n" phone="+12399970111" fax="" account="" email="courierconnect@aol.com" phone2="" notes="good rates" contact="Evette" /><marker id="337" name="CPR Courier" place_id="CHIJEeMD30BA24gRk3IG5BuJPew" lat="0.000000" lng="0.000000" city="Ft Myers" state="FL" grade="3" usa="0" iac="0" hm="0" tsa="0" nfo="0" vehicles="n" phone="+12392771014" fax="12399365285" account="" email="" phone2="d: 239-470-4735" notes="$$" contact="" /><marker id="338" name="Eagle Parcel Service" place_id="" lat="0.000000" lng="0.000000" city="Ft Myers" state="FL" grade="3" usa="0" iac="0" hm="0" tsa="0" nfo="0" vehicles="n" phone="+12398787841" fax="" account="" email="" phone2="" notes="" contact="" /><marker id="339" name="Island Express" place_id="" lat="0.000000" lng="0.000000" city="Ft Myers" state="FL" grade="3" usa="0" iac="1" hm="0" tsa="0" nfo="0" vehicles="n" phone="+12396930066" fax="" account="#4271" email="" phone2="" notes="" contact="" /><marker id="340" name="Care Free Pickup & Delivery" place_id="" lat="0.000000" lng="0.000000" city="Ft Pierce" state="FL" grade="3" usa="0" iac="0" hm="0" tsa="0" nfo="0" vehicles="n" phone="+17727084654" fax="17728711996" account="" email="" phone2="office: 772-871-997" notes="" contact="" /><marker id="341" name="Ace Expediters" place_id="" lat="0.000000" lng="0.000000" city="Ft Walton" state="FL" grade="3" usa="0" iac="0" hm="0" tsa="0" nfo="0" vehicles="n" phone="+18502442626" fax="" account="" email="acecourierdelivers@gmail.com" phone2="" notes="" contact="" /><marker id="342" name="Absolute Courier" place_id="" lat="0.000000" lng="0.000000" city="Gainesville" state="FL" grade="3" usa="0" iac="0" hm="0" tsa="0" nfo="0" vehicles="n" phone="+13524736481" fax="13524735460" account="" email="" phone2="c: 352-672-7983" notes="" contact="Jamie" /><marker id="343" name="Confidential Courier" place_id="" lat="0.000000" lng="0.000000" city="Gainesville" state="FL" grade="2" usa="0" iac="1" hm="0" tsa="0" nfo="0" vehicles="n" phone="+13523780999" fax="13523781594" account="" email="" phone2="352-226-2843" notes="$$$$$" contact="Rob" /><marker id="344" name="We Go" place_id="" lat="0.000000" lng="0.000000" city="Gainesville" state="FL" grade="3" usa="0" iac="0" hm="0" tsa="0" nfo="0" vehicles="n" phone="+13528729346" fax="" account="" email="" phone2="h: 850-315-0511" notes="" contact="Carmen" /><marker id="346" name="Gulf Coast Courier" place_id="CHIJsWP5ju7qkIgRNFDYrkDbzFY" lat="0.000000" lng="0.000000" city="Gulf Breeze-pensacola" state="FL" grade="3" usa="0" iac="0" hm="0" tsa="0" nfo="0" vehicles="n" phone="+18509690901" fax="18059690198" account="" email="" phone2="" notes="no usad" contact="Bobbi" /><marker id="347" name="Courier Solutions" place_id="" lat="0.000000" lng="0.000000" city="Hollywood" state="FL" grade="3" usa="0" iac="0" hm="0" tsa="0" nfo="0" vehicles="n" phone="+19547927275" fax="19547928755" account="" email="" phone2="" notes="" contact="Steve Stroh" /><marker id="348" name="Ace Expediters" place_id="" lat="0.000000" lng="0.000000" city="Jacksonville" state="FL" grade="3" usa="0" iac="0" hm="0" tsa="0" nfo="0" vehicles="n" phone="+19047230166" fax="" account="" email="" phone2="" notes="no on call" contact="Ken Halbert" /><marker id="349" name="Bizzee Bee Courier" place_id="" lat="0.000000" lng="0.000000" city="Jacksonville" state="FL" grade="3" usa="0" iac="0" hm="0" tsa="0" nfo="0" vehicles="n" phone="+19043965259" fax="19048807172" account="" email="" phone2="" notes="" contact="Debbie" /><marker id="350" name="Blue Streak Couriers" place_id="CHIJpzCiwYq15YgRRW02aI29-Kk" lat="30.259220" lng="-81.580063" city="Jacksonville" state="FL" grade="4" usa="0" iac="1" hm="0" tsa="0" nfo="0" vehicles="n" phone="+19044488000" fax="19042980380" account="" email="jbunker@bluestreakcouriers.com" phone2="" notes="not good for airport or long" contact="Harold B" /><marker id="351" name="Pettyco Express" place_id="" lat="0.000000" lng="0.000000" city="Jacksonville" state="FL" grade="3" usa="0" iac="0" hm="0" tsa="0" nfo="0" vehicles="n" phone="+19046952200" fax="19046930730" account="" email="" phone2="" notes="" contact="" /><marker id="352" name="Priority Courier" place_id="" lat="0.000000" lng="0.000000" city="Jacksonville" state="FL" grade="4" usa="0" iac="0" hm="0" tsa="0" nfo="0" vehicles="n" phone="+19043463474" fax="19044481873" account="" email="" phone2="Richard: 904-448-3154" notes="good rates for far 5943 SW County Rd 751 Jasper 32052" contact="Kim" /><marker id="353" name="Velox Express" place_id="" lat="30.350298" lng="-81.668694" city="Jacksonville" state="FL" grade="4" usa="0" iac="0" hm="0" tsa="0" nfo="0" vehicles="n" phone="+18778356946" fax="" account="" email="" phone2="" notes="" contact="" /><marker id="354" name="Martin Mccollum" place_id="" lat="0.000000" lng="0.000000" city="Jasper" state="FL" grade="4" usa="6276" iac="0" hm="0" tsa="0" nfo="0" vehicles="n" phone="+13869382433" fax="" account="" email="jayken@windstream.net" phone2="" notes="long" contact="" /><marker id="355" name="Delivery For The Keys" place_id="" lat="0.000000" lng="0.000000" city="Key Largo" state="FL" grade="3" usa="0" iac="0" hm="0" tsa="0" nfo="0" vehicles="n" phone="+13059428257" fax="" account="" email="" phone2="" notes="" contact="Jim Horan" /><marker id="356" name="Look Limo" place_id="" lat="0.000000" lng="0.000000" city="Key West" state="FL" grade="2" usa="0" iac="0" hm="0" tsa="0" nfo="0" vehicles="n" phone="+13053933593" fax="" account="" email="" phone2="" notes="$$$" contact="Bob Albert" /><marker id="357" name="Kelley's Courier" place_id="" lat="0.000000" lng="0.000000" city="Lady Lake" state="FL" grade="3" usa="0" iac="0" hm="0" tsa="0" nfo="0" vehicles="n" phone="+14079272500" fax="" account="" email="" phone2="" notes="" contact="" /><marker id="358" name="Mid State Taxi" place_id="" lat="0.000000" lng="0.000000" city="Lady Lake" state="FL" grade="3" usa="0" iac="0" hm="0" tsa="0" nfo="0" vehicles="n" phone="+13527482222" fax="" account="" email="" phone2="" notes="" contact="" /><marker id="359" name="Here To There Courier" place_id="" lat="0.000000" lng="0.000000" city="Lake Wales" state="FL" grade="3" usa="0" iac="0" hm="0" tsa="0" nfo="0" vehicles="n" phone="+18638129440" fax="18636822779" account="" email="" phone2="old: 863-370-8804" notes="Lakeland" contact="" /><marker id="360" name="Town Car Chauffer" place_id="" lat="0.000000" lng="0.000000" city="Longwood" state="FL" grade="3" usa="0" iac="0" hm="0" tsa="0" nfo="0" vehicles="n" phone="+14074634809" fax="" account="" email="" phone2="" notes="north orlando" contact="" /><marker id="361" name="American Expediting Company" place_id="" lat="0.000000" lng="0.000000" city="Melbourne" state="FL" grade="3" usa="0" iac="1" hm="0" tsa="0" nfo="0" vehicles="n" phone="+14078311908" fax="14078311916" account="" email="" phone2="" notes="" contact="" /><marker id="362" name="Space Coast" place_id="" lat="0.000000" lng="0.000000" city="Melbourne" state="FL" grade="5" usa="0" iac="0" hm="0" tsa="0" nfo="0" vehicles="n" phone="+13217731700" fax="" account="" email="" phone2="321-403-5067" notes="" contact="Mary" /><marker id="363" name="Ace Expediters" place_id="" lat="0.000000" lng="0.000000" city="Miami" state="FL" grade="3" usa="0" iac="0" hm="0" tsa="0" nfo="0" vehicles="n" phone="+13052554845" fax="" account="" email="" phone2="" notes="no on call" contact="Ken Halbert" /><marker id="364" name="American Expediting Company" place_id="" lat="0.000000" lng="0.000000" city="Miami" state="FL" grade="3" usa="0" iac="1" hm="0" tsa="0" nfo="0" vehicles="n" phone="+13059745965" fax="13058880097" account="" email="" phone2="" notes="" contact="" /><marker id="365" name="Baron Messenger Service" place_id="CHIJxWA4AISu2YgR6ujwgA0m_os" lat="0.000000" lng="0.000000" city="Miami" state="FL" grade="5" usa="0" iac="1" hm="0" tsa="0" nfo="0" vehicles="n" phone="+18002276648" fax="13056884112" account="#3778" email="orders@barondelivers.com" phone2="" notes="" contact="Larry" /><marker id="366" name="Esquire Express" place_id="" lat="0.000000" lng="0.000000" city="Miami" state="FL" grade="3" usa="0" iac="0" hm="0" tsa="0" nfo="0" vehicles="n" phone="+13055309580" fax="13025308414" account="" email="steve@esquireexpress.com" phone2="" notes="8.00 min-1.50 mile" contact="Steve" /><marker id="367" name="Ibc Messenger" place_id="" lat="0.000000" lng="0.000000" city="Miami" state="FL" grade="4" usa="0" iac="0" hm="0" tsa="0" nfo="0" vehicles="n" phone="+13055918900" fax="13055927021" account="#2828" email="nfo@ibcmessenger.com" phone2="" notes="" contact="" /><marker id="368" name="Ace Expediters" place_id="" lat="0.000000" lng="0.000000" city="N. Ft. Meyers" state="FL" grade="3" usa="0" iac="0" hm="0" tsa="0" nfo="0" vehicles="n" phone="+12395674711" fax="" account="" email="" phone2="" notes="no on call" contact="Ken Halbert" /><marker id="369" name="American Expediting" place_id="" lat="0.000000" lng="0.000000" city="Naples" state="FL" grade="3" usa="0" iac="1" hm="0" tsa="0" nfo="0" vehicles="n" phone="+18002880345" fax="14123214574" account="" email="" phone2="" notes="" contact="" /><marker id="370" name="Courier Connection" place_id="CHIJs_iOnh1C24gRCrKGCAHT-Uc" lat="0.000000" lng="0.000000" city="Naples" state="FL" grade="3" usa="0" iac="0" hm="0" tsa="0" nfo="0" vehicles="n" phone="+12399970111" fax="" account="" email="courierconnect@aol.com" phone2="" notes="good rates" contact="" /><marker id="371" name="Cpr" place_id="" lat="0.000000" lng="0.000000" city="Naples" state="FL" grade="3" usa="0" iac="0" hm="0" tsa="0" nfo="0" vehicles="n" phone="+